_id,coop,station_name,country_name,utc_offset,datetime_utc,lat,lon,precip_amt
5b5df609976f770001878115,010008,ABBEVILLE,UNITED STATES,-0600,2012-04-18 16:00:00,31.5702,-85.2482,0.2
5b5df609976f7700018781d5,010063,ADDISON,UNITED STATES,-0600,2012-04-18 16:00:00,34.2553,-87.1814,0.0
5b5df609976f770001878295,010116,ALABASTER SHELBY COUNTY AP,UNITED STATES,-0600,2012-04-18 16:00:00,33.17833,-86.78167,0.0
5b5df609976f770001878325,010140,ALBERTA,UNITED STATES,-0600,2012-04-18 16:00:00,32.2322,-87.4104,0.0
5b5df609976f77000187839d,010252,ANDALUSIA 3 W,UNITED STATES,-0600,2012-04-18 16:00:00,31.3071,-86.5226,0.0
5b5df609976f770001878475,010272,ANNISTON METROPOLITAN AP,UNITED STATES,-0600,2012-04-18 16:00:00,33.5872,-85.8556,0.0
5b5df609976f770001878565,010369,ASHLAND 3 ENE,UNITED STATES,-0600,2012-04-18 16:00:00,33.2941,-85.7788,0.0
5b5df609976f7700018785f5,010390,ATHENS,UNITED STATES,-0600,2012-04-18 16:00:00,34.7752,-86.9508,0.0
5b5df609976f77000187869d,010402,ATMORE,UNITED STATES,-0600,2012-04-18 16:00:00,31.182,-87.439,0.0
5b5df609976f770001878745,010425,AUBURN NO.2,UNITED STATES,-0600,2012-04-18 16:00:00,32.5992,-85.4653,0.0
5b5df609976f77000187884d,010831,BIRMINGHAM AP,UNITED STATES,-0600,2012-04-18 16:00:00,33.56556,-86.745,0.0
5b5df609976f770001878955,011099,BRIDGEPORT 5 NW,UNITED STATES,-0600,2012-04-18 16:00:00,34.9786,-85.8008,0.0
5b5df609976f7700018789fd,012124,DADEVILLE 2,UNITED STATES,-0600,2012-04-18 16:00:00,32.8622,-85.7358,0.0
5b5df609976f770001878aed,012377,DOTHAN 4 NW,UNITED STATES,-0600,2012-04-18 16:00:00,31.28333,-85.4,0.2
5b5df609976f770001878ce5,013519,GREENVILLE,UNITED STATES,-0600,2012-04-18 16:00:00,31.7901,-86.6087,0.0
5b5df609976f770001878dd5,013645,HAMILTON 3 S,UNITED STATES,-0600,2012-04-18 16:00:00,34.0966,-87.9913,0.0
5b5df609976f770001878e7d,014064,HUNTSVILLE WBAS AP,UNITED STATES,-0600,2012-04-18 16:00:00,34.7,-86.58333,0.0
5b5df609976f770001878ffd,014209,JACKSONVILLE,UNITED STATES,-0600,2012-04-18 16:00:00,33.8256,-85.7812,0.0
5b5df609976f77000187911d,015478,MOBILE REGIONAL AP,UNITED STATES,-0600,2012-04-18 16:00:00,30.68833,-88.24556,0.0
5b5df609976f770001879195,015550,MONTGOMERY AP,UNITED STATES,-0600,2012-04-18 16:00:00,32.2997,-86.4075,0.0
5b5df609976f77000187923d,015553,MONTGOMERY 6SW,UNITED STATES,-0600,2012-04-18 16:00:00,32.26,-86.218,0.0
5b5df609976f77000187935d,018178,THOMASVILLE,UNITED STATES,-0600,2012-04-18 16:00:00,31.91722,-87.73472,0.0
5b5df609976f7700018793d5,018209,THORSBY EXP STATION,UNITED STATES,-0600,2012-04-18 16:00:00,32.9205,-86.6708,0.0
5b5df609976f77000187944d,018323,TROY,UNITED STATES,-0600,2012-04-18 16:00:00,31.8075,-85.9722,0.0
5b5df609976f7700018794dd,018383,TUSCALOOSA ARPT ASOS,UNITED STATES,-0600,2012-04-18 16:00:00,33.2119,-87.6161,0.0
5b5df609976f77000187b48d,034185,LEWISVILLE,UNITED STATES,-0600,2012-04-18 16:00:00,33.3613,-93.5674,0.0
5b5df609976f77000187bb65,035110,NARROWS DAM,UNITED STATES,-0600,2012-04-18 16:00:00,34.1452,-93.7138,0.0
5b5df609976f77000187d79b,041886,COFFEE CREEK RS,UNITED STATES,-0800,2012-04-18 16:00:00,41.0894,-122.7086,0.0
5b5df609976f77000187dea3,042910,EUREKA WFO WOODLEY ISLAND,UNITED STATES,-0800,2012-04-18 16:00:00,40.8097,-124.1602,0.01
5b5df609976f77000187e3cb,043194,FORT SEWARD,UNITED STATES,-0800,2012-04-18 16:00:00,40.2183,-123.6322,0.0
5b5df609976f77000187e6cb,043357,GASQUET RS,UNITED STATES,-0800,2012-04-18 16:00:00,41.8452,-123.9647,0.0
5b5df609976f77000187ee33,043791,HARRISON GULCH RS,UNITED STATES,-0800,2012-04-18 16:00:00,40.3636,-122.965,0.0
5b5df609976f77000187f20b,044074,HONEYDEW 1 SW,UNITED STATES,-0800,2012-04-18 16:00:00,40.2375,-124.1322,0.0
5b5df609976f77000187f35b,044089,HOOPA,UNITED STATES,-0800,2012-04-18 16:00:00,41.0483,-123.6755,0.0
5b5df609976f77000187f463,044191,HYAMPOM,UNITED STATES,-0800,2012-04-18 16:00:00,40.6161,-123.4566,0.0
5b5df609976f77000187f583,044587,KNEELAND 10 SSE,UNITED STATES,-0800,2012-04-18 16:00:00,40.6422,-123.9149,0.0
5b5df609976f77000187fc43,045242,MAD RIVER 12 SE,UNITED STATES,-0800,2012-04-18 16:00:00,40.3186,-123.3738,0.0
5b5df609976f77000187fefb,045623,MILFORD LAUFMAN RS,UNITED STATES,-0800,2012-04-18 16:00:00,40.1414,-120.3533,0.0
5b5df609976f770001880033,045679,MINERAL,UNITED STATES,-0800,2012-04-18 16:00:00,40.3458,-121.6091,0.0
5b5df609976f770001880b73,046513,ORLEANS RS,UNITED STATES,-0800,2012-04-18 16:00:00,41.3033,-123.5344,0.0
5b5df609976f770001881323,047292,RED BLUFF,UNITED STATES,-0800,2012-04-18 16:00:00,40.18333,-122.2,0.0
5b5df609976f77000188145b,047304,REDDING MUNICIPAL AP,UNITED STATES,-0800,2012-04-18 16:00:00,40.5175,-122.2986,0.0
5b5df609976f77000188151b,047342,REDWOOD CREEK O'KANE,UNITED STATES,-0800,2012-04-18 16:00:00,40.9069,-123.8147,0.1
5b5df609976f770001881713,047630,SACRAMENTO EXECUTIVE AP,UNITED STATES,-0800,2012-04-18 16:00:00,38.5069,-121.495,0.0
5b5df609976f77000188244b,048025,SAWYERS BAR RS,UNITED STATES,-0800,2012-04-18 16:00:00,41.3011,-123.133,0.0
5b5df609976f77000188292b,048332,SODA SPRINGS 1 E,UNITED STATES,-0800,2012-04-18 16:00:00,39.3255,-120.3672,0.0
5b5df609976f77000188319b,049053,TULELAKE,UNITED STATES,-0800,2012-04-18 16:00:00,41.96,-121.4744,0.0
5b5df609976f7700018834e3,049490,WEAVERVILLE,UNITED STATES,-0800,2012-04-18 16:00:00,40.7367,-122.9404,0.0
5b5df609976f770001883b5c,050372,ASPEN 1SW,UNITED STATES,-0700,2012-04-18 16:00:00,39.1852,-106.838,0.0
5b5df609976f770001883c7c,050373,ASPEN PITKIN COUNTY AP SARDY FIELD,UNITED STATES,-0700,2012-04-18 16:00:00,39.23,-106.87056,0.0
5b5df609976f77000188430c,051931,CRAIG MOFFAT COUNTY AP,UNITED STATES,-0700,2012-04-18 16:00:00,40.49278,-107.52417,0.0
5b5df609976f77000188466c,052286,DINOSAUR NATL MONUMNT,UNITED STATES,-0700,2012-04-18 16:00:00,40.2441,-108.9726,0.0
5b5df609976f770001884b94,053488,GRAND JUNCTION WALKER FIELD,UNITED STATES,-0700,2012-04-18 16:00:00,39.1342,-108.54,0.0
5b5df609976f77000188559c,055484,MEEKER,UNITED STATES,-0700,2012-04-18 16:00:00,40.0358,-107.9058,0.0
5b5df609976f770001885674,055485,MEEKER AIRPORT,UNITED STATES,-0700,2012-04-18 16:00:00,40.04417,-107.88861,0.0
5b5df609976f770001885824,055718,MONTROSE REGIONAL AP,UNITED STATES,-0700,2012-04-18 16:00:00,38.50583,-107.89889,0.0
5b5df609976f770001885b9c,055982,NORTHGATE,UNITED STATES,-0700,2012-04-18 16:00:00,40.93663,-106.33908,0.0
5b5df609976f770001885f8c,057033,RIFLE 3ENE,UNITED STATES,-0700,2012-04-18 16:00:00,39.5572,-107.7261,0.0
5b5df609976f77000188604c,057034,RIFLE GARFIELD COUNTY AP,UNITED STATES,-0700,2012-04-18 16:00:00,39.52778,-107.71972,0.0
5b5df609976f77000188694c,058781,WALSENBURG 1 NW,UNITED STATES,-0700,2012-04-18 16:00:00,37.6302,-104.7956,0.0
5b5df609976f770001886ea6,079595,WILMINGTON NEW CASTLE CO AP,UNITED STATES,-0500,2012-04-18 16:00:00,39.6744,-75.60567,0.0
5b5df609976f7700018870b5,081986,CRESTVIEW BOB SIKES AP,UNITED STATES,-0600,2012-04-18 16:00:00,30.77972,-86.5225,0.0
5b5df609976f77000188721e,082158,DAYTONA BEACH INTL AP,UNITED STATES,-0500,2012-04-18 16:00:00,29.1828,-81.0483,0.0
5b5df609976f7700018872ae,082229,DELAND 3 NE,UNITED STATES,-0500,2012-04-18 16:00:00,29.06667,-81.28333,0.0
5b5df609976f77000188733e,082391,DOWLING PARK 1 W,UNITED STATES,-0500,2012-04-18 16:00:00,30.2497,-83.2594,0.0
5b5df609976f77000188766e,083326,GAINESVILLE REGIONAL AP,UNITED STATES,-0500,2012-04-18 16:00:00,29.6919,-82.2755,0.0
5b5df609976f7700018876e5,083538,GRACEVILLE 1 SW,UNITED STATES,-0600,2012-04-18 16:00:00,30.9575,-85.533,0.0
5b5df609976f77000188787e,084358,JACKSONVILLE INTL AP,UNITED STATES,-0500,2012-04-18 16:00:00,30.495,-81.6936,0.0
5b5df609976f77000188796e,084370,JACKSONVILLE CRAIG MUNICIPAL AP,UNITED STATES,-0500,2012-04-18 16:00:00,30.3361,-81.5147,0.0
5b5df609976f770001887aa6,084570,KEY WEST WBAS AP,UNITED STATES,-0500,2012-04-18 16:00:00,24.58333,-81.7,0.0
5b5df609976f77000188808e,085880,MONTICELLO 10 SW,UNITED STATES,-0500,2012-04-18 16:00:00,30.4405,-83.9858,0.0
5b5df609976f770001888225,086240,NICEVILLE,UNITED STATES,-0600,2012-04-18 16:00:00,30.5316,-86.4928,0.0
5b5df609976f770001888435,086997,PENSACOLA,UNITED STATES,-0600,2012-04-18 16:00:00,30.53028,-87.19944,0.0
5b5df609976f77000188868e,088758,TALLAHASSEE REGIONAL AP,UNITED STATES,-0500,2012-04-18 16:00:00,30.39306,-84.35333,0.04
5b5df609976f770001888bfd,089415,WAUSAU,UNITED STATES,-0600,2012-04-18 16:00:00,30.6323,-85.5976,0.2
5b5df609976f770001888cee,089525,WEST PALM BEACH INTERNATIONAL AP,UNITED STATES,-0500,2012-04-18 16:00:00,26.6847,-80.0994,0.0
5b5df609976f770001888df6,089795,WOODRUFF DAM,UNITED STATES,-0500,2012-04-18 16:00:00,30.7219,-84.8741,0.0
5b5df60a976f770001888e86,090044,ADAIRSVILLE 5 SE,UNITED STATES,-0500,2012-04-18 16:00:00,34.3407,-84.8347,0.0
5b5df60a976f770001888efe,090211,ALMA BACON COUNTY AP,UNITED STATES,-0500,2012-04-18 16:00:00,31.5358,-82.5067,0.0
5b5df60a976f770001888fa6,090435,ATHENS BEN EPPS AP,UNITED STATES,-0500,2012-04-18 16:00:00,33.948,-83.3275,0.04
5b5df60a976f770001889096,090451,ATLANTA HARTSFIELD INTL AP,UNITED STATES,-0500,2012-04-18 16:00:00,33.6301,-84.4418,0.01
5b5df60a976f770001889186,090495,AUGUSTA WB AIRPORT,UNITED STATES,-0500,2012-04-18 16:00:00,33.46667,-82.03333,0.01
5b5df60a976f77000188925e,091345,BRUNSWICK MALCOLM MCKINNON AP,UNITED STATES,-0500,2012-04-18 16:00:00,31.1522,-81.3908,0.0
5b5df60a976f770001889336,091619,CARNESVILLE,UNITED STATES,-0500,2012-04-18 16:00:00,34.36555,-83.23278,0.0
5b5df60a976f77000188937e,091743,CEDARTOWN 8 SE,UNITED STATES,-0500,2012-04-18 16:00:00,33.9534,-85.1697,0.0
5b5df60a976f770001889426,091863,CHATSWORTH 2,UNITED STATES,-0500,2012-04-18 16:00:00,34.7582,-84.7642,0.0
5b5df60a976f7700018894fe,091908,CHICKAMAUGA PK LARC,UNITED STATES,-0500,2012-04-18 16:00:00,34.9203,-85.2711,0.0
5b5df60a976f770001889606,092166,COLUMBUS METROPOLITAN AP,UNITED STATES,-0500,2012-04-18 16:00:00,32.5161,-84.9422,0.0
5b5df60a976f77000188967e,092361,CRISP CO POWER DAM,UNITED STATES,-0500,2012-04-18 16:00:00,31.8453,-83.9409,0.0
5b5df60a976f7700018896f6,092485,DALLAS 7 NE,UNITED STATES,-0500,2012-04-18 16:00:00,33.988,-84.7475,0.0
5b5df60a976f770001889786,092593,DECATUR COUNTY FIRE AND RESCUE,UNITED STATES,-0500,2012-04-18 16:00:00,30.9772,-84.6367,0.0
5b5df60a976f770001889816,092844,DUBLIN 2,UNITED STATES,-0500,2012-04-18 16:00:00,32.5574,-82.8999,0.0
5b5df60a976f7700018898a6,093028,EDISON,UNITED STATES,-0500,2012-04-18 16:00:00,31.5663,-84.7338,0.1
5b5df60a976f770001889966,093460,FOLKSTON 3 SW,UNITED STATES,-0500,2012-04-18 16:00:00,30.7997,-82.0313,0.0
5b5df60a976f7700018899ae,094204,HAZLEHURST,UNITED STATES,-0500,2012-04-18 16:00:00,31.8878,-82.5808,0.0
5b5df60a976f770001889a26,094623,JACKSON DAM,UNITED STATES,-0500,2012-04-18 16:00:00,33.32,-83.8436,0.1
5b5df60a976f770001889a86,094659,JEFFERSON,UNITED STATES,-0500,2012-04-18 16:00:00,34.1081,-83.5725,0.1
5b5df60a976f770001889bee,094941,CHICKAMAUGA 2 SW,UNITED STATES,-0500,2012-04-18 16:00:00,34.853,-85.3142,0.0
5b5df60a976f770001889c66,095165,LEXINGTON,UNITED STATES,-0500,2012-04-18 16:00:00,33.8705,-83.1135,0.0
5b5df60a976f770001889cde,095314,LOUISVILLE 1 E,UNITED STATES,-0500,2012-04-18 16:00:00,33.0125,-82.3914,0.0
5b5df60a976f770001889d9e,095443,MACON MIDDLE GA REGIONAL AP,UNITED STATES,-0500,2012-04-18 16:00:00,32.6847,-83.6527,0.05
5b5df60a976f770001889e46,095876,MILLEDGEVILLE (DARDC),UNITED STATES,-0500,2012-04-18 16:00:00,33.0864,-83.2197,0.0
5b5df60a976f770001889ea6,095974,MONROE DARDC,UNITED STATES,-0500,2012-04-18 16:00:00,33.8019,-83.7156,0.0
5b5df60a976f770001889f36,096879,PEARSON,UNITED STATES,-0500,2012-04-18 16:00:00,31.2928,-82.8422,0.0
5b5df60a976f77000188a00e,097847,SAVANNAH INT'L AIRPORT,UNITED STATES,-0500,2012-04-18 16:00:00,32.13133,-81.20237,0.0
5b5df60a976f77000188a086,098657,THE ROCK RANCH,UNITED STATES,-0500,2012-04-18 16:00:00,32.96416,-84.23027,0.0
5b5df60a976f77000188a116,098935,UNICOI STATE PARK,UNITED STATES,-0500,2012-04-18 16:00:00,34.7206,-83.7219,0.0
5b5df60a976f77000188a21e,099291,WEST POINT,UNITED STATES,-0500,2012-04-18 16:00:00,32.8861,-85.1838,0.0
5b5df60a976f77000188a27e,099486,WINTERVILLE,UNITED STATES,-0500,2012-04-18 16:00:00,33.9664,-83.2911,0.0
5b5df60a976f77000188a384,101022,BOISE RIVER GAGE,UNITED STATES,-0700,2012-04-18 16:00:00,43.61667,-116.21667,0.0
5b5df60a976f77000188a51c,101303,BURLEY MUNICIPAL AIRPORT,UNITED STATES,-0700,2012-04-18 16:00:00,42.5416,-113.7661,0.0
5b5df60a976f77000188a623,101370,CALDER,UNITED STATES,-0800,2012-04-18 16:00:00,47.2748,-116.1889,0.0
5b5df60a976f77000188a75c,101514,CASCADE 1 NW,UNITED STATES,-0700,2012-04-18 16:00:00,44.5228,-116.0481,0.0
5b5df60a976f77000188a8c4,102187,COUNCIL,UNITED STATES,-0700,2012-04-18 16:00:00,44.7441,-116.4326,0.0
5b5df60a976f77000188aa8b,102892,ELK RIVER,UNITED STATES,-0800,2012-04-18 16:00:00,46.7823,-116.1796,0.0
5b5df60a976f77000188abc3,102966,ENAVILLE,UNITED STATES,-0800,2012-04-18 16:00:00,47.5689,-116.253,0.0
5b5df60a976f77000188afb3,105241,LEWISTON NEZ PERCE COUNTY AP,UNITED STATES,-0800,2012-04-18 16:00:00,46.3747,-117.0156,0.0
5b5df60a976f77000188b50c,107211,POCATELLO REGIONAL AIRPORT,UNITED STATES,-0700,2012-04-18 16:00:00,42.9202,-112.5711,0.0
5b5df60a976f77000188b5e4,107327,PRAIRIE,UNITED STATES,-0700,2012-04-18 16:00:00,43.5063,-115.5716,0.0
5b5df60a976f77000188b71b,107358,PRICHARD 4 N,UNITED STATES,-0800,2012-04-18 16:00:00,47.7074,-115.978,0.0
5b5df60a976f77000188c2bd,111549,CHICAGO OHARE INTL AP,UNITED STATES,-0600,2012-04-18 16:00:00,41.995,-87.9336,0.0
5b5df60a976f77000188c8a5,112687,EFFINGHAM 3SW,UNITED STATES,-0600,2012-04-18 16:00:00,39.1181,-88.6244,0.0
5b5df60a976f77000188cdcd,114078,HIDALGO 3SW,UNITED STATES,-0600,2012-04-18 16:00:00,39.1396,-88.1905,0.0
5b5df60a976f77000188d3cd,114957,LAWRENCEVILLE 2WSW,UNITED STATES,-0600,2012-04-18 16:00:00,38.7239,-87.7196,0.0
5b5df60a976f77000188d565,115493,MC HENRY,UNITED STATES,-0600,2012-04-18 16:00:00,42.35,-88.26667,0.0
5b5df60a976f77000188d685,115751,MOLINE QUAD CITY INTL AP,UNITED STATES,-0600,2012-04-18 16:00:00,41.46528,-90.52333,0.0
5b5df60a976f77000188d7d5,115768,MONMOUTH,UNITED STATES,-0600,2012-04-18 16:00:00,40.9443,-90.6381,0.0
5b5df60a976f77000188d9b5,115983,MURPHYSBORO WATERWORKS,UNITED STATES,-0600,2012-04-18 16:00:00,37.76667,-89.31667,0.0
5b5df60a976f77000188df55,117014,PROPHETSTOWN,UNITED STATES,-0600,2012-04-18 16:00:00,41.6752,-89.9374,0.0
5b5df60a976f77000188e345,117382,ROCKFORD GREATER ROCKFORD AP,UNITED STATES,-0600,2012-04-18 16:00:00,42.1927,-89.093,0.0
5b5df60a976f77000188e555,117833,SHABBONA 3S,UNITED STATES,-0600,2012-04-18 16:00:00,41.73272,-88.86425,0.0
5b5df60a976f77000188e615,118020,SMITHLAND LOCK & DAM,UNITED STATES,-0600,2012-04-18 16:00:00,37.1644,-88.4311,0.0
5b5df60a976f77000188e9ed,118781,VANDALIA,UNITED STATES,-0600,2012-04-18 16:00:00,38.958,-89.0952,0.0
5b5df60a976f770001890596,127069,PORTLAND WATER WORKS,UNITED STATES,-0500,2012-04-18 16:00:00,40.46667,-84.96667,0.0
5b5df60a976f770001890a8e,127999,SHELBYVILLE SEWAGE PLANT,UNITED STATES,-0500,2012-04-18 16:00:00,39.5282,-85.7914,0.0
5b5df60a976f770001890c56,128187,SOUTH BEND AP,UNITED STATES,-0500,2012-04-18 16:00:00,41.7072,-86.3163,0.0
5b5df60a976f770001891255,130046,ADAIR,UNITED STATES,-0600,2012-04-18 16:00:00,41.5013,-94.6355,0.0
5b5df60a976f770001891375,130197,AMES MUNICIPAL AP,UNITED STATES,-0600,2012-04-18 16:00:00,41.99056,-93.61889,0.0
5b5df60a976f770001891465,130200,AMES 8 WSW,UNITED STATES,-0600,2012-04-18 16:00:00,42.0208,-93.7741,0.0
5b5df60a976f7700018917f5,130853,BOYER 4 SE,UNITED STATES,-0600,2012-04-18 16:00:00,42.1255,-95.1886,0.0
5b5df60a976f7700018918fd,131126,CALMAR NE,UNITED STATES,-0600,2012-04-18 16:00:00,43.1876,-91.862,0.0
5b5df60a976f770001891a35,131245,CARSON 3NNE,UNITED STATES,-0600,2012-04-18 16:00:00,41.2738,-95.4025,0.0
5b5df60a976f770001891c2d,131314,CEDAR RAPIDS MUNICIPAL AP,UNITED STATES,-0600,2012-04-18 16:00:00,41.8833,-91.7166,0.0
5b5df60a976f770001891ee5,131442,CHEROKEE 3 N,UNITED STATES,-0600,2012-04-18 16:00:00,42.78333,-95.55,0.0
5b5df60a976f770001892125,131793,COON RAPIDS,UNITED STATES,-0600,2012-04-18 16:00:00,41.8747,-94.6705,0.0
5b5df60a976f770001892275,132203,DES MOINES INTL AP,UNITED STATES,-0600,2012-04-18 16:00:00,41.5338,-93.653,0.0
5b5df60a976f7700018924e5,132367,DUBUQUE REGIONAL AP,UNITED STATES,-0600,2012-04-18 16:00:00,42.39778,-90.70361,0.0
5b5df60a976f770001892665,132977,FOREST CITY 2 NNE,UNITED STATES,-0600,2012-04-18 16:00:00,43.2844,-93.6305,0.0
5b5df60a976f770001892785,133438,GREENFIELD,UNITED STATES,-0600,2012-04-18 16:00:00,41.298,-94.4561,0.0
5b5df60a976f7700018929c5,133944,HORNICK 5S,UNITED STATES,-0600,2012-04-18 16:00:00,42.1558,-96.083,0.0
5b5df60a976f770001892ae5,134142,IOWA FALLS,UNITED STATES,-0600,2012-04-18 16:00:00,42.5188,-93.2536,0.0
5b5df60a976f7700018930cd,134587,LAMONI MUNICIPAL AP,UNITED STATES,-0600,2012-04-18 16:00:00,40.6306,-93.9008,0.0
5b5df60a976f770001893205,134746,LENOX,UNITED STATES,-0600,2012-04-18 16:00:00,40.8747,-94.5717,0.0
5b5df60a976f7700018933e5,135199,MARSHALLTOWN MUNICIPAL AP,UNITED STATES,-0600,2012-04-18 16:00:00,42.11056,-92.91611,0.0
5b5df60a976f770001893535,135235,MASON CITY MUNICIPAL AP,UNITED STATES,-0600,2012-04-18 16:00:00,43.1544,-93.3269,0.0
5b5df60a976f770001893685,135295,MAXWELL,UNITED STATES,-0600,2012-04-18 16:00:00,41.8875,-93.3919,0.0
5b5df60a976f770001893aa5,135823,MOVILLE,UNITED STATES,-0600,2012-04-18 16:00:00,42.4916,-96.0688,0.0
5b5df60a976f770001893ccd,136209,OGDEN,UNITED STATES,-0600,2012-04-18 16:00:00,42.0388,-94.0419,0.0
5b5df60a976f770001893e05,136389,OTTUMWA INDUSTRIAL AP,UNITED STATES,-0600,2012-04-18 16:00:00,41.1077,-92.4466,0.0
5b5df60a976f770001893f6d,137058,RINGSTED,UNITED STATES,-0600,2012-04-18 16:00:00,43.2947,-94.5116,0.0
5b5df60a976f7700018940bd,137167,ROCKWELL CITY NO. 2,UNITED STATES,-0600,2012-04-18 16:00:00,42.3911,-94.6288,0.0
5b5df60a976f77000189417d,137326,ST ANSGAR,UNITED STATES,-0600,2012-04-18 16:00:00,43.3817,-92.9232,0.0
5b5df60a976f77000189438d,137572,SHEFFIELD 3 NW,UNITED STATES,-0600,2012-04-18 16:00:00,42.9216,-93.2827,0.0
5b5df60a976f77000189456d,137602,SHELL ROCK 1 SW,UNITED STATES,-0600,2012-04-18 16:00:00,42.70417,-92.59056,0.0
5b5df60a976f7700018946a5,137700,SIOUX CENTER 2 SE,UNITED STATES,-0600,2012-04-18 16:00:00,43.0558,-96.1525,0.0
5b5df60a976f7700018947c5,137708,SIOUX CITY AP,UNITED STATES,-0600,2012-04-18 16:00:00,42.3913,-96.3791,0.0
5b5df60a976f7700018948fd,137774,SOLDIER,UNITED STATES,-0600,2012-04-18 16:00:00,41.9811,-95.7769,0.0
5b5df60a976f770001894a1d,137844,SPENCER 1 N,UNITED STATES,-0600,2012-04-18 16:00:00,43.1652,-95.1466,0.0
5b5df60a976f770001894b0d,137985,STORY CITY,UNITED STATES,-0600,2012-04-18 16:00:00,42.1791,-93.5816,0.0
5b5df60a976f770001894fd5,138706,WATERLOO MUNICIPAL AP,UNITED STATES,-0600,2012-04-18 16:00:00,42.5544,-92.4011,0.0
5b5df60a976f77000189510d,138806,WEBSTER CITY,UNITED STATES,-0600,2012-04-18 16:00:00,42.4685,-93.7974,0.0
5b5df60a976f77000189522d,139164,WOODBINE,UNITED STATES,-0600,2012-04-18 16:00:00,41.745,-95.7091,0.0
5b5df60a976f770001895fc5,143686,HILLSDALE LAKE,UNITED STATES,-0600,2012-04-18 16:00:00,38.6645,-94.8901,0.0
5b5df60a976f77000189714e,150450,BAXTER,UNITED STATES,-0500,2012-04-18 16:00:00,36.8582,-83.3302,0.1
5b5df60a976f770001897255,150611,BENTON,UNITED STATES,-0600,2012-04-18 16:00:00,36.858,-88.3363,0.0
5b5df60a976f770001897976,154202,JACKSON JULIAN CARROLL AP,UNITED STATES,-0500,2012-04-18 16:00:00,37.59139,-83.31444,0.02
5b5df60a976f770001898695,161157,BOOTHVILLE ASOS,UNITED STATES,-0600,2012-04-18 16:00:00,29.333,-89.4075,0.0
5b5df60a976f7700018988ed,164030,HAMMOND 5 E,UNITED STATES,-0600,2012-04-18 16:00:00,30.503,-90.3772,0.0
5b5df60a976f77000189a71e,180465,BALTIMORE WB AIRPORT,UNITED STATES,-0500,2012-04-18 16:00:00,39.25,-76.53333,0.0
5b5df60a976f77000189a80e,180700,BELTSVILLE,UNITED STATES,-0500,2012-04-18 16:00:00,39.0302,-76.9315,0.0
5b5df60a976f77000189a8fe,185718,MARYLAND SCIENCE CENTER,UNITED STATES,-0500,2012-04-18 16:00:00,39.2814,-76.6111,0.0
5b5df60a976f77000189a9ee,185934,MILLERS 4 NE,UNITED STATES,-0500,2012-04-18 16:00:00,39.7194,-76.8027,0.0
5b5df60a976f77000189b19e,200089,ALBERTA FORD FOR CENTER,UNITED STATES,-0500,2012-04-18 16:00:00,46.6448,-88.4812,0.0
5b5df60a976f77000189b28e,200164,ALPENA COUNTY REGIONAL AP,UNITED STATES,-0500,2012-04-18 16:00:00,45.0716,-83.5644,0.0
5b5df60a976f77000189b426,200662,BELLAIRE,UNITED STATES,-0500,2012-04-18 16:00:00,44.9758,-85.198,0.0
5b5df60a976f77000189b546,200766,BIG BAY 8 NW,UNITED STATES,-0500,2012-04-18 16:00:00,46.8864,-87.8639,0.1
5b5df60a976f77000189b5ee,201088,BRUCE CROSSING,UNITED STATES,-0500,2012-04-18 16:00:00,46.5345,-89.1839,0.0
5b5df60a976f77000189b79e,201486,CHATHAM EXPERIMENT FARM 2,UNITED STATES,-0500,2012-04-18 16:00:00,46.3414,-86.9242,0.1
5b5df60a976f77000189bace,202626,ESCANABA,UNITED STATES,-0500,2012-04-18 16:00:00,45.7438,-87.0406,0.0
5b5df60a976f77000189c0e6,203516,GWINN 1W,UNITED STATES,-0500,2012-04-18 16:00:00,46.2863,-87.4511,0.1
5b5df60a976f77000189c33e,203936,HOUGHTON LAKE ROSCOMMON COUNTY AP,UNITED STATES,-0500,2012-04-18 16:00:00,44.3591,-84.6738,0.0
5b5df60a976f77000189c4bd,204090,IRON MTN-KINGSFORD WWTP,UNITED STATES,-0600,2012-04-18 16:00:00,45.7858,-88.0841,0.0
5b5df60a976f77000189c595,204104,IRONWOOD,UNITED STATES,-0600,2012-04-18 16:00:00,46.4656,-90.1892,0.2
5b5df60a976f77000189c8c6,204328,KENTON,UNITED STATES,-0500,2012-04-18 16:00:00,46.4863,-88.8916,0.0
5b5df60a976f77000189c96e,204502,LAKE CITY EXP FARM,UNITED STATES,-0500,2012-04-18 16:00:00,44.3088,-85.205,0.0
5b5df60a976f77000189cb96,205073,MANISTIQUE WWTP,UNITED STATES,-0500,2012-04-18 16:00:00,45.9512,-86.2513,0.0
5b5df60a976f77000189cc6e,205184,MARQUETTE WFO,UNITED STATES,-0500,2012-04-18 16:00:00,46.5313,-87.5491,0.0
5b5df60a976f77000189cdbe,205712,MUSKEGON COUNTY AP,UNITED STATES,-0500,2012-04-18 16:00:00,43.17111,-86.23667,0.0
5b5df60a976f77000189cef6,206215,ONTONAGON,UNITED STATES,-0500,2012-04-18 16:00:00,46.8559,-89.3124,0.0
5b5df60a976f77000189d0be,206438,PELLSTON REGIONAL AIRPORT,UNITED STATES,-0500,2012-04-18 16:00:00,45.5644,-84.7927,0.0
5b5df60a976f77000189d23e,207366,SAULT STE MARIE SANDERSON FIELD,UNITED STATES,-0500,2012-04-18 16:00:00,46.4794,-84.3572,0.0
5b5df60a976f77000189d405,207812,STAMBAUGH 2SSE,UNITED STATES,-0600,2012-04-18 16:00:00,46.0555,-88.6275,0.0
5b5df60a976f77000189d59e,208293,TROUT LAKE 1SW,UNITED STATES,-0500,2012-04-18 16:00:00,46.1796,-85.0311,0.0
5b5df60a976f77000189d62e,208417,VANDERBILT 11ENE,UNITED STATES,-0500,2012-04-18 16:00:00,45.1702,-84.4397,0.0
5b5df60a976f77000189d945,210112,ALEXANDRIA MUNICIPAL AP,UNITED STATES,-0600,2012-04-18 16:00:00,45.8679,-95.3941,0.0
5b5df60a976f77000189dc15,210746,BIG FALLS,UNITED STATES,-0600,2012-04-18 16:00:00,48.1969,-93.7994,0.0
5b5df60a976f77000189dd4d,211227,CAMBRIDGE 5ESE,UNITED STATES,-0600,2012-04-18 16:00:00,45.5505,-93.1265,0.0
5b5df60a976f77000189de6d,211263,CANBY,UNITED STATES,-0600,2012-04-18 16:00:00,44.7184,-96.2696,0.0
5b5df60a976f77000189df8d,212166,DODGE CENTER,UNITED STATES,-0600,2012-04-18 16:00:00,44.0317,-92.8691,0.0
5b5df60a976f77000189e125,212248,DULUTH INTL AP,UNITED STATES,-0600,2012-04-18 16:00:00,46.8369,-92.1833,0.01
5b5df60a976f77000189e2a5,212645,EVELETH WASTE WATER PLANT,UNITED STATES,-0600,2012-04-18 16:00:00,47.4581,-92.5303,0.0
5b5df60a976f77000189e395,212842,FLOODWOOD 3 NE,UNITED STATES,-0600,2012-04-18 16:00:00,46.9728,-92.87,0.0
5b5df60a976f77000189e40d,212916,FOSSTON 1 E,UNITED STATES,-0600,2012-04-18 16:00:00,47.5639,-95.7246,0.0
5b5df60a976f77000189e545,213202,GOLDEN VALLEY,UNITED STATES,-0600,2012-04-18 16:00:00,44.9907,-93.3989,0.0
5b5df60a976f77000189e70d,213411,GULL LAKE DAM,UNITED STATES,-0600,2012-04-18 16:00:00,46.4119,-94.3608,0.0
5b5df60a976f77000189e7e5,213417,GUNFLINT LAKE 10 NW,UNITED STATES,-0600,2012-04-18 16:00:00,48.1603,-90.8842,0.0
5b5df60a976f77000189e88d,213463,HALSTAD,UNITED STATES,-0600,2012-04-18 16:00:00,47.3522,-96.8332,0.0
5b5df60a976f77000189e9ad,213863,HOLYOKE,UNITED STATES,-0600,2012-04-18 16:00:00,46.4675,-92.3903,0.0
5b5df60a976f77000189ec1d,214026,INTERNATIONAL FALLS INTL AP,UNITED STATES,-0600,2012-04-18 16:00:00,48.5614,-93.3981,0.0
5b5df60a976f77000189ed25,214418,LA CRESCENT DAM 7,UNITED STATES,-0600,2012-04-18 16:00:00,43.8657,-91.31,0.0
5b5df60a976f77000189ee15,214453,LAKEFIELD 2NE,UNITED STATES,-0600,2012-04-18 16:00:00,43.7022,-95.1519,0.0
5b5df60a976f77000189f085,215435,MINNEAPOLIS ST PAUL INTL AP,UNITED STATES,-0600,2012-04-18 16:00:00,44.8831,-93.2289,0.0
5b5df60a976f77000189f24d,215441,MINNEAPOLIS CRYSTAL AIRPORT,UNITED STATES,-0600,2012-04-18 16:00:00,45.06194,-93.35083,0.0
5b5df60a976f77000189f3e5,215443,MINNEAPOLIS FLYING CLOUD AIRPORT,UNITED STATES,-0600,2012-04-18 16:00:00,44.8321,-93.4705,0.0
5b5df60a976f77000189f565,216166,ONAMIA RANGER STATION,UNITED STATES,-0600,2012-04-18 16:00:00,46.06773,-93.66663,0.0
5b5df60a976f77000189f66d,216211,ORR 3E,UNITED STATES,-0600,2012-04-18 16:00:00,48.0508,-92.7636,0.0
5b5df60a976f77000189f8ad,216822,RED WING DAM 3,UNITED STATES,-0600,2012-04-18 16:00:00,44.6103,-92.6101,0.0
5b5df60a976f77000189fa2d,216841,REDWOOD FALLS MUNICIPAL AIRPORT,UNITED STATES,-0600,2012-04-18 16:00:00,44.5483,-95.0804,0.0
5b5df60a976f77000189fb7d,217004,ROCHESTER,UNITED STATES,-0600,2012-04-18 16:00:00,44,-92.45,0.0
5b5df60a976f77000189fccd,217184,RUSHFORD,UNITED STATES,-0600,2012-04-18 16:00:00,43.8052,-91.7501,0.0
5b5df60a976f77000189fded,217294,ST. CLOUD,UNITED STATES,-0600,2012-04-18 16:00:00,45.55,-94.133333,0.0
5b5df60a976f77000189ff55,217370,ST PAUL DOWNTOWN AIRPORT,UNITED STATES,-0600,2012-04-18 16:00:00,44.93194,-93.05556,0.0
5b5df60a976f7700018a0075,217460,SANDY LAKE DAM LIBBY,UNITED STATES,-0600,2012-04-18 16:00:00,46.7953,-93.3211,0.0
5b5df60a976f7700018a011d,217602,SHERBURN 2 E,UNITED STATES,-0600,2012-04-18 16:00:00,43.65,-94.7,0.0
5b5df60a976f7700018a032d,217941,SPRING VALLEY,UNITED STATES,-0600,2012-04-18 16:00:00,43.6933,-92.3926,0.0
5b5df60a976f7700018a041d,218235,THIEF LAKE REFUGE,UNITED STATES,-0600,2012-04-18 16:00:00,48.4882,-95.9496,0.0
5b5df60a976f7700018a05b5,218411,TWIN VALLEY 3 SW,UNITED STATES,-0600,2012-04-18 16:00:00,47.2272,-96.2986,0.0
5b5df60a976f7700018a06a5,218613,WALES 2E,UNITED STATES,-0600,2012-04-18 16:00:00,47.2561,-91.7017,0.0
5b5df60a976f7700018a0735,218679,WARROAD,UNITED STATES,-0600,2012-04-18 16:00:00,48.8947,-95.3303,0.0
5b5df60a976f7700018a07f5,218729,WATSON 1 NE,UNITED STATES,-0600,2012-04-18 16:00:00,45.0227,-95.7896,0.0
5b5df60a976f7700018a08e5,218947,WHITE ROCK DAM,UNITED STATES,-0600,2012-04-18 16:00:00,45.8619,-96.565,0.0
5b5df60a976f7700018a10dd,222773,ENID DAM,UNITED STATES,-0600,2012-04-18 16:00:00,34.1606,-89.902,0.0
5b5df60a976f7700018a11b5,222870,ETHEL,UNITED STATES,-0600,2012-04-18 16:00:00,33.1169,-89.4719,0.0
5b5df60a976f7700018a1575,223666,GULFPORT - BILOXI AIRPORT,UNITED STATES,-0600,2012-04-18 16:00:00,30.4119,-89.0808,0.0
5b5df60a976f7700018a1635,223895,HATTIESBURG CHAIN MUNICIPAL AP,UNITED STATES,-0600,2012-04-18 16:00:00,31.28194,-89.25306,0.0
5b5df60a976f7700018a16f5,224001,HICKORY FLAT,UNITED STATES,-0600,2012-04-18 16:00:00,34.6189,-89.1912,0.0
5b5df60a976f7700018a17e5,224173,HOLLY SPRINGS 4 N,UNITED STATES,-0600,2012-04-18 16:00:00,34.8219,-89.4347,0.0
5b5df60a976f7700018a1d6d,225776,MERIDIAN KEY FIELD,UNITED STATES,-0600,2012-04-18 16:00:00,32.3347,-88.7442,0.0
5b5df60a976f7700018a1f4d,226714,PASCAGOULA LOTT INTL AP,UNITED STATES,-0600,2012-04-18 16:00:00,30.46361,-88.53194,0.0
5b5df60a976f7700018a212d,227220,PURVIS 2N,UNITED STATES,-0600,2012-04-18 16:00:00,31.1775,-89.4155,0.0
5b5df60a976f7700018a23b5,227815,SARDIS DAM,UNITED STATES,-0600,2012-04-18 16:00:00,34.3961,-89.7902,0.0
5b5df60a976f7700018a24bd,227820,SAREPTA 1 NNE,UNITED STATES,-0600,2012-04-18 16:00:00,34.1207,-89.2943,0.0
5b5df60a976f7700018a28ad,229079,UNIVERSITY,UNITED STATES,-0600,2012-04-18 16:00:00,34.3726,-89.5308,0.0
5b5df60b976f7700018a335d,232318,DOWNING,UNITED STATES,-0600,2012-04-18 16:00:00,40.4906,-92.3705,0.0
5b5df60b976f7700018a3ced,234544,KIRKSVILLE,UNITED STATES,-0600,2012-04-18 16:00:00,40.2057,-92.5748,0.0
5b5df60b976f7700018a404d,235130,LURAY 2 N,UNITED STATES,-0600,2012-04-18 16:00:00,40.4869,-91.8764,0.0
5b5df60b976f7700018a419d,235207,MALDEN MUNICIPAL AP,UNITED STATES,-0600,2012-04-18 16:00:00,36.5994,-89.9894,999.99
5b5df60b976f7700018a6255,238746,WASHINGTON,UNITED STATES,-0600,2012-04-18 16:00:00,38.5416,-90.9752,0.0
5b5df60b976f7700018a668c,240554,BAYLOR,UNITED STATES,-0700,2012-04-18 16:00:00,48.6715,-106.4808,0.0
5b5df60b976f7700018a67c4,240622,BOZEMAN GALLATIN FIELD AP,UNITED STATES,-0700,2012-04-18 16:00:00,45.788,-111.1608,0.0
5b5df60b976f7700018a698c,240807,BILLINGS INTERNATIONAL AIRPORT,UNITED STATES,-0700,2012-04-18 16:00:00,45.8069,-108.5422,0.0
5b5df60b976f7700018a6bfc,241102,BRIDGER 2 N,UNITED STATES,-0700,2012-04-18 16:00:00,45.3261,-108.9091,0.0
5b5df60b976f7700018a6e3c,241318,BUTTE BERT MOONEY AP,UNITED STATES,-0700,2012-04-18 16:00:00,45.9647,-112.5006,0.01
5b5df60b976f7700018a710c,241875,COHAGEN,UNITED STATES,-0700,2012-04-18 16:00:00,47.0568,-106.6166,0.0
5b5df60b976f7700018a71fc,241995,COOKE CITY 2 W,UNITED STATES,-0700,2012-04-18 16:00:00,45.0108,-109.982,0.0
5b5df60b976f7700018a746c,242404,DILLON AIRPORT,UNITED STATES,-0700,2012-04-18 16:00:00,45.2575,-112.5544,0.0
5b5df60b976f7700018a75a4,242414,DILLON  9 SSE,UNITED STATES,-0700,2012-04-18 16:00:00,45.09178,-112.60443,0.0
5b5df60b976f7700018a767c,242441,DODSON 11 N,UNITED STATES,-0700,2012-04-18 16:00:00,48.5542,-108.2067,0.0
5b5df60b976f7700018a779c,242584,DUTTON 6 E,UNITED STATES,-0700,2012-04-18 16:00:00,47.8433,-111.5795,0.0
5b5df60b976f7700018a7a24,243489,GIBSON DAM,UNITED STATES,-0700,2012-04-18 16:00:00,47.6011,-112.7547,0.0
5b5df60b976f7700018a7ae4,243558,GLASGOW INTERNATIONAL AP,UNITED STATES,-0700,2012-04-18 16:00:00,48.2138,-106.6214,0.0
5b5df60b976f7700018a7ba4,243581,GLENDIVE,UNITED STATES,-0700,2012-04-18 16:00:00,47.1065,-104.7183,0.0
5b5df60b976f7700018a7cac,243751,GREAT FALLS AIRPORT,UNITED STATES,-0700,2012-04-18 16:00:00,47.4733,-111.3822,0.0
5b5df60b976f7700018a7d9c,243753,GREAT FALLS WFO,UNITED STATES,-0700,2012-04-18 16:00:00,47.4615,-111.385,0.0
5b5df60b976f7700018a7f4c,243996,HAVRE AP ASOS,UNITED STATES,-0700,2012-04-18 16:00:00,48.5428,-109.7633,0.01
5b5df60b976f7700018a8174,244055,HELENA AIRPORT ASOS,UNITED STATES,-0700,2012-04-18 16:00:00,46.6056,-111.9636,0.0
5b5df60b976f7700018a8264,244143,HILGER,UNITED STATES,-0700,2012-04-18 16:00:00,47.2531,-109.361,0.0
5b5df60b976f7700018a860c,244558,KALISPELL GLACIER AIRPORT,UNITED STATES,-0700,2012-04-18 16:00:00,48.3042,-114.2636,0.0
5b5df60b976f7700018a875c,244904,LAVINA,UNITED STATES,-0700,2012-04-18 16:00:00,46.293,-108.9416,0.0
5b5df60b976f7700018a8834,244983,LEWISTOWN 2 SW,UNITED STATES,-0700,2012-04-18 16:00:00,47.0512,-109.4426,0.0
5b5df60b976f7700018a8a14,245086,LIVINGSTON,UNITED STATES,-0700,2012-04-18 16:00:00,45.66667,-110.53333,0.01
5b5df60b976f7700018a8b94,245088,LIVINGSTON RAIN GAUGE,UNITED STATES,-0700,2012-04-18 16:00:00,45.697,-110.454,0.0
5b5df60b976f7700018a8d44,245335,MALTA #2,UNITED STATES,-0700,2012-04-18 16:00:00,48.3469,-107.8783,0.0
5b5df60b976f7700018a8edc,245690,MILES CITY AIRPORT,UNITED STATES,-0700,2012-04-18 16:00:00,46.4266,-105.8825,0.0
5b5df60b976f7700018a8fcc,245706,MILLEGAN,UNITED STATES,-0700,2012-04-18 16:00:00,47.0206,-111.3699,0.0
5b5df60b976f7700018a911c,245745,MISSOULA INTERNATIONAL AP,UNITED STATES,-0700,2012-04-18 16:00:00,46.9208,-114.0925,0.0
5b5df60b976f7700018a95fc,246610,POLARIS 4 N,UNITED STATES,-0700,2012-04-18 16:00:00,45.4144,-113.1061,0.0
5b5df60b976f7700018a97dc,247258,RUSSELL,UNITED STATES,-0700,2012-04-18 16:00:00,48.0685,-111.0661,0.1
5b5df60b976f7700018a992c,247425,SCOBEY 4 NW,UNITED STATES,-0700,2012-04-18 16:00:00,48.83528,-105.47472,0.0
5b5df60b976f7700018a9c2c,248101,SWIFT DAM,UNITED STATES,-0700,2012-04-18 16:00:00,48.1633,-112.8672,0.0
5b5df60b976f7700018a9cbc,248169,TERRY 25 NNW,UNITED STATES,-0700,2012-04-18 16:00:00,47.11667,-105.55,0.0
5b5df60b976f7700018a9d7c,248329,TOWNSEND 12 ENE,UNITED STATES,-0700,2012-04-18 16:00:00,46.3566,-111.2841,0.0
5b5df60b976f7700018aa034,248866,WEST YELLOWSTONE USFS,UNITED STATES,-0700,2012-04-18 16:00:00,44.6658,-111.0983,0.0
5b5df60b976f7700018aa1e4,249044,WINNETT,UNITED STATES,-0700,2012-04-18 16:00:00,47.0059,-108.3559,0.0
5b5df60b976f7700018aa2bc,249052,WINNETT 8 ESE,UNITED STATES,-0700,2012-04-18 16:00:00,46.9393,-108.1968,0.0
5b5df60b976f7700018aa394,249067,WISDOM,UNITED STATES,-0700,2012-04-18 16:00:00,45.6177,-113.4513,0.0
5b5df60b976f7700018aa52c,249900,ZORTMAN,UNITED STATES,-0700,2012-04-18 16:00:00,47.9185,-108.5244,0.0
5b5df60b976f7700018ab00d,252010,CRESTON,UNITED STATES,-0600,2012-04-18 16:00:00,41.7063,-97.3637,0.0
5b5df60b976f7700018ab33d,252205,DAVID CITY,UNITED STATES,-0600,2012-04-18 16:00:00,41.2491,-97.1327,0.0
5b5df60b976f7700018ab51d,252433,DU BOIS 1NNW,UNITED STATES,-0600,2012-04-18 16:00:00,40.0411,-96.0499,0.0
5b5df60b976f7700018abda5,254795,LINCOLN AIRPORT,UNITED STATES,-0600,2012-04-18 16:00:00,40.8508,-96.7475,0.0
5b5df60b976f7700018abf85,255112,MALMO 1 E,UNITED STATES,-0600,2012-04-18 16:00:00,41.2629,-96.6945,0.0
5b5df60b976f7700018ac074,255700,MULLEN,UNITED STATES,-0700,2012-04-18 16:00:00,42.0426,-101.0459,0.0
5b5df60b976f7700018ac1c5,255995,NORFOLK KARL STEFAN MEMORIAL AP,UNITED STATES,-0600,2012-04-18 16:00:00,41.9855,-97.4352,0.0
5b5df60b976f7700018ac495,256255,OMAHA EPPLEY AIRFIELD,UNITED STATES,-0600,2012-04-18 16:00:00,41.3102,-95.8991,0.0
5b5df60b976f7700018ac614,256386,OSHKOSH 10 NE,UNITED STATES,-0700,2012-04-18 16:00:00,41.4952,-102.1844,0.0
5b5df60b976f7700018ac795,257351,ROYAL 2SE,UNITED STATES,-0600,2012-04-18 16:00:00,42.3202,-98.0933,0.0
5b5df60b976f7700018ac884,257665,SCOTTSBLUFF W B HEILIG FIELD AP,UNITED STATES,-0700,2012-04-18 16:00:00,41.8705,-103.593,0.0
5b5df60b976f7700018accbd,258760,VALENTINE MILLER FIELD,UNITED STATES,-0600,2012-04-18 16:00:00,42.8783,-100.55,0.0
5b5df60b976f7700018ace0d,259091,WEEPING WATER 3N,UNITED STATES,-0600,2012-04-18 16:00:00,40.9158,-96.1408,0.0
5b5df60b976f7700018aceb5,259513,YORK 3N,UNITED STATES,-0600,2012-04-18 16:00:00,40.9152,-97.5997,0.0
5b5df60b976f7700018ad213,262631,ELY AIRPORT,UNITED STATES,-0800,2012-04-18 16:00:00,39.2952,-114.8466,0.0
5b5df60b976f7700018ad483,264700,LOVELOCK DERBY FIELD AP,UNITED STATES,-0800,2012-04-18 16:00:00,40.0681,-118.5692,0.0
5b5df60b976f7700018adae3,269171,WINNEMUCCA WB CITY,UNITED STATES,-0800,2012-04-18 16:00:00,40.96667,-117.71667,0.0
5b5df60b976f7700018ae03e,280311,ATLANTIC CITY INTL AP,UNITED STATES,-0500,2012-04-18 16:00:00,39.45202,-74.56699,0.0
5b5df60b976f7700018ae21e,285581,MILLVILLE MUNICIPAL AP,UNITED STATES,-0500,2012-04-18 16:00:00,39.36623,-75.0778,0.0
5b5df60b976f7700018ae3b6,286026,NEWARK,UNITED STATES,-0500,2012-04-18 16:00:00,40.73333,-74.183333,0.0
5b5df60b976f7700018ae63c,290407,ANGEL FIRE 1S,UNITED STATES,-0700,2012-04-18 16:00:00,36.3949,-105.2852,0.0
5b5df60b976f7700018afaf6,301185,CANTON 4 SE,UNITED STATES,-0500,2012-04-18 16:00:00,44.5772,-75.1097,0.0
5b5df60b976f7700018b037e,304207,JAMESTOWN 4 ENE,UNITED STATES,-0500,2012-04-18 16:00:00,42.11,-79.1591,0.0
5b5df60b976f7700018b0756,305801,NY CITY CENTRAL PARK,UNITED STATES,-0500,2012-04-18 16:00:00,40.77898,-73.96925,0.0
5b5df60b976f7700018b08d6,305803,JFK INTL AP,UNITED STATES,-0500,2012-04-18 16:00:00,40.6386,-73.7622,0.0
5b5df60b976f7700018b0a6e,305811,LA GUARDIA AP,UNITED STATES,-0500,2012-04-18 16:00:00,40.7792,-73.88,0.0
5b5df60b976f7700018b1cb6,309072,WELLSVILLE,UNITED STATES,-0500,2012-04-18 16:00:00,42.1173,-77.9475,0.0
5b5df60b976f7700018b1fe6,310300,ASHEVILLE AIRPORT,UNITED STATES,-0500,2012-04-18 16:00:00,35.4319,-82.5375,0.02
5b5df60b976f7700018b211e,310301,ASHEVILLE,UNITED STATES,-0500,2012-04-18 16:00:00,35.5954,-82.5568,0.02
5b5df60b976f7700018b223e,310312,ASHFORD,UNITED STATES,-0500,2012-04-18 16:00:00,35.8922,-81.9352,0.0
5b5df60b976f7700018b232e,310438,BADIN,UNITED STATES,-0500,2012-04-18 16:00:00,35.4591,-80.1827,0.0
5b5df60b976f7700018b241e,310750,B. EVERETT JORDAN DAM,UNITED STATES,-0500,2012-04-18 16:00:00,35.6542,-79.0706,0.0
5b5df60b976f7700018b26ee,311690,CHARLOTTE DOUGLAS AIRPORT,UNITED STATES,-0500,2012-04-18 16:00:00,35.2236,-80.9552,0.0
5b5df60b976f7700018b27f6,312631,EDEN,UNITED STATES,-0500,2012-04-18 16:00:00,36.4742,-79.7433,0.0
5b5df60b976f7700018b28e6,312732,ELIZABETHTOWN,UNITED STATES,-0500,2012-04-18 16:00:00,34.6272,-78.6113,0.0
5b5df60b976f7700018b29d6,313017,FAYETTEVILLE (PWC),UNITED STATES,-0500,2012-04-18 16:00:00,35.0583,-78.8583,0.0
5b5df60b976f7700018b2ac6,313630,GREENSBORO  AP,UNITED STATES,-0500,2012-04-18 16:00:00,36.0969,-79.9432,0.0
5b5df60b976f7700018b2be6,313638,GREENVILLE,UNITED STATES,-0500,2012-04-18 16:00:00,35.64,-77.3984,0.0
5b5df60b976f7700018b2cbe,314020,HICKORY FAA AIRPORT,UNITED STATES,-0500,2012-04-18 16:00:00,35.74207,-81.38229,0.05
5b5df60b976f7700018b2dc6,314675,KING,UNITED STATES,-0500,2012-04-18 16:00:00,36.2838,-80.3624,0.0
5b5df60b976f7700018b2e86,314764,LAKE LURE 2,UNITED STATES,-0500,2012-04-18 16:00:00,35.4205,-82.1877,0.0
5b5df60b976f7700018b2f2e,314860,LAURINBURG,UNITED STATES,-0500,2012-04-18 16:00:00,34.7508,-79.4664,0.0
5b5df60b976f7700018b3006,314970,LEXINGTON,UNITED STATES,-0500,2012-04-18 16:00:00,35.8458,-80.2597,0.0
5b5df60b976f7700018b30f6,315182,LUMBERTON REGIONAL AIRPORT,UNITED STATES,-0500,2012-04-18 16:00:00,34.608,-79.0591,0.0
5b5df60b976f7700018b346e,316108,NEW BERN CRAVEN COUNTY REGIONAL AP,UNITED STATES,-0500,2012-04-18 16:00:00,35.0677,-77.048,0.0
5b5df60b976f7700018b3576,316256,NORTH WILKESBORO,UNITED STATES,-0500,2012-04-18 16:00:00,36.1638,-81.1536,0.0
5b5df60b976f7700018b3726,317069,RALEIGH  AP,UNITED STATES,-0500,2012-04-18 16:00:00,35.8923,-78.7819,0.0
5b5df60b976f7700018b388e,317324,ROARING GAP 1 NW,UNITED STATES,-0500,2012-04-18 16:00:00,36.40869,-80.99539,0.0
5b5df60b976f7700018b3966,317845,SHELBY 2 NW,UNITED STATES,-0500,2012-04-18 16:00:00,35.31099,-81.57096,0.0
5b5df60b976f7700018b39f6,319357,WHITEVILLE 7 NW,UNITED STATES,-0500,2012-04-18 16:00:00,34.4094,-78.7913,0.0
5b5df60b976f7700018b3ace,319457,WILMINGTON INT'L AIRPORT,UNITED STATES,-0500,2012-04-18 16:00:00,34.2675,-77.8997,0.0
5b5df60b976f7700018b3c06,319476,WILSON 3 SW,UNITED STATES,-0500,2012-04-18 16:00:00,35.6938,-77.946,0.0
5b5df60b976f7700018b3cc6,319555,W. KERR SCOTT RESV.,UNITED STATES,-0500,2012-04-18 16:00:00,36.1308,-81.2275,0.0
5b5df60b976f7700018b3db6,319675,YADKINVILLE 6 E,UNITED STATES,-0500,2012-04-18 16:00:00,36.1306,-80.5481,0.0
5b5df60b976f7700018b40b5,320819,BISMARCK MUNICIPAL AP,UNITED STATES,-0600,2012-04-18 16:00:00,46.7825,-100.7572,0.0
5b5df60b976f7700018b4474,322183,DICKINSON THEODORE ROOSEVELT REGIONAL AIRPORT,UNITED STATES,-0700,2012-04-18 16:00:00,46.7994,-102.7972,0.0
5b5df60b976f7700018b4594,322188,DICKINSON EXP STATION,UNITED STATES,-0700,2012-04-18 16:00:00,46.89138,-102.81055,0.0
5b5df60b976f7700018b4685,322859,FARGO HECTOR INTL AP,UNITED STATES,-0600,2012-04-18 16:00:00,46.9253,-96.8111,0.0
5b5df60b976f7700018b4e95,325479,MANDAN EXP STATION,UNITED STATES,-0600,2012-04-18 16:00:00,46.8127,-100.9097,0.0
5b5df60b976f7700018b517d,325993,MINOT EXP STATION,UNITED STATES,-0600,2012-04-18 16:00:00,48.1802,-101.2963,0.0
5b5df60b976f7700018b529c,326158,MOTT 1N,UNITED STATES,-0700,2012-04-18 16:00:00,46.393,-102.3186,0.0
5b5df60b976f7700018b5435,326947,PEMBINA,UNITED STATES,-0600,2012-04-18 16:00:00,48.9713,-97.2414,0.0
5b5df60b976f7700018b5a05,329425,WILLISTON WBO,UNITED STATES,-0600,2012-04-18 16:00:00,48.15,-103.61667,0.0
5b5df60b976f7700018b9bd3,350328,ASTORIA AIRPORT (PORT OF),UNITED STATES,-0800,2012-04-18 16:00:00,46.1569,-123.8825,0.0
5b5df60b976f7700018b9d23,350356,AUSTIN 3 S,UNITED STATES,-0800,2012-04-18 16:00:00,44.5747,-118.4913,0.0
5b5df60b976f7700018ba00b,350471,BANDON 2 NNE,UNITED STATES,-0800,2012-04-18 16:00:00,43.1497,-124.4019,0.0
5b5df60b976f7700018ba1eb,350781,BLACKBUTTE 1 N,UNITED STATES,-0800,2012-04-18 16:00:00,43.5947,-123.0705,0.0
5b5df60b976f7700018ba2f3,350853,BLY RANGER STATION,UNITED STATES,-0800,2012-04-18 16:00:00,42.4,-121.0458,0.0
5b5df60b976f7700018ba413,350897,BONNEVILLE DAM,UNITED STATES,-0800,2012-04-18 16:00:00,45.6354,-121.9523,0.0
5b5df60b976f7700018ba5f3,351058,BROOKINGS,UNITED STATES,-0800,2012-04-18 16:00:00,42.0463,-124.2877,0.1
5b5df60b976f7700018ba773,351175,BURNS MUNICIPAL AIRPORT,UNITED STATES,-0800,2012-04-18 16:00:00,43.595,-118.9564,0.0
5b5df60b976f7700018ba923,351207,BUTTE FALLS 1 SE,UNITED STATES,-0800,2012-04-18 16:00:00,42.5378,-122.5525,0.0
5b5df60b976f7700018baa73,351222,BUXTON,UNITED STATES,-0800,2012-04-18 16:00:00,45.6898,-123.1906,0.0
5b5df60b976f7700018bac0b,351643,CLATSKANIE,UNITED STATES,-0800,2012-04-18 16:00:00,46.1081,-123.2058,0.0
5b5df60b976f7700018badd3,351735,COLTON,UNITED STATES,-0800,2012-04-18 16:00:00,45.1728,-122.4342,0.1
5b5df60b976f7700018bb0d3,351902,COTTAGE GROVE DAM,UNITED STATES,-0800,2012-04-18 16:00:00,43.7178,-123.0578,0.0
5b5df60b976f7700018bb283,351914,COUGAR DAM,UNITED STATES,-0800,2012-04-18 16:00:00,44.1308,-122.2419,0.0
5b5df60b976f7700018bb44b,351946,CRATER LAKE NPS HQ,UNITED STATES,-0800,2012-04-18 16:00:00,42.8966,-122.1327,0.1
5b5df60c976f7700018bb5e3,352295,DEVILS FLAT,UNITED STATES,-0800,2012-04-18 16:00:00,42.8116,-123.055,0.0
5b5df60c976f7700018bb77b,352345,DISSTON 1 NE LAYING CREEK,UNITED STATES,-0800,2012-04-18 16:00:00,43.7077,-122.7394,0.0
5b5df60c976f7700018bb8cb,352348,DIXIE MOUNTAIN,UNITED STATES,-0800,2012-04-18 16:00:00,45.6994,-122.9322,0.0
5b5df60c976f7700018bba63,352374,DORENA,UNITED STATES,-0800,2012-04-18 16:00:00,43.7822,-122.963,0.0
5b5df60c976f7700018bbbfb,352408,DRAIN 10 NNW,UNITED STATES,-0800,2012-04-18 16:00:00,43.7847,-123.4247,0.0
5b5df60c976f7700018bbd63,352697,ESTACADA 24 SE,UNITED STATES,-0800,2012-04-18 16:00:00,45.0767,-121.9714,0.0
5b5df60c976f7700018bbf2b,352709,EUGENE-MAHLON SWEET FIELD,UNITED STATES,-0800,2012-04-18 16:00:00,44.1278,-123.2206,0.0
5b5df60c976f7700018bc0ab,352800,FALLS CITY 2 SSW,UNITED STATES,-0800,2012-04-18 16:00:00,44.8358,-123.4525,0.0
5b5df60c976f7700018bc1e3,352867,FERN RIDGE-VENETA,UNITED STATES,-0800,2012-04-18 16:00:00,44.0494,-123.3702,0.0
5b5df60c976f7700018bc2a3,352972,FLORENCE 3 NNW,UNITED STATES,-0800,2012-04-18 16:00:00,44,-124.11667,0.0
5b5df60c976f7700018bc453,353047,FOSTER DAM,UNITED STATES,-0800,2012-04-18 16:00:00,44.4139,-122.6728,0.0
5b5df60c976f7700018bc723,353402,GOVERNMENT CAMP,UNITED STATES,-0800,2012-04-18 16:00:00,45.3013,-121.7416,0.0
5b5df60c976f7700018bc9db,353521,GRESHAM,UNITED STATES,-0800,2012-04-18 16:00:00,45.483,-122.4152,0.0
5b5df60c976f7700018bcb73,353705,HASKINS DAM,UNITED STATES,-0800,2012-04-18 16:00:00,45.3127,-123.35,0.0
5b5df60c976f7700018bcd53,353915,HILLS CREEK DAM,UNITED STATES,-0800,2012-04-18 16:00:00,43.75,-122.5,0.0
5b5df60c976f7700018bce8b,354008,HOOD RIVER-TUCKER BRIDGE,UNITED STATES,-0800,2012-04-18 16:00:00,45.6547,-121.5494,0.0
5b5df60c976f7700018bd03b,354238,JEFFERSON,UNITED STATES,-0800,2012-04-18 16:00:00,44.7234,-123.0134,0.0
5b5df60c976f7700018bd18b,354276,JEWELL WILDLIFE MEADOWS,UNITED STATES,-0800,2012-04-18 16:00:00,45.9411,-123.5283,0.0
5b5df60c976f7700018bd3cb,354606,LACOMB 3 NNE,UNITED STATES,-0800,2012-04-18 16:00:00,44.6253,-122.7189,0.1
5b5df60c976f7700018bd54b,354622,LA GRANDE,UNITED STATES,-0800,2012-04-18 16:00:00,45.3167,-118.0747,0.0
5b5df60c976f7700018bd6cb,354824,LEES CAMP,UNITED STATES,-0800,2012-04-18 16:00:00,45.5925,-123.5222,0.1
5b5df60c976f7700018bd8db,355206,MAPLETON 2 NNW,UNITED STATES,-0800,2012-04-18 16:00:00,44.0615,-123.8847,0.0
5b5df60c976f7700018bda5b,355213,MARCOLA,UNITED STATES,-0800,2012-04-18 16:00:00,44.1706,-122.8714,0.0
5b5df60c976f7700018bdbc3,355221,MARION FORKS FISH HATCHERY,UNITED STATES,-0800,2012-04-18 16:00:00,44.6125,-121.9486,0.1
5b5df60c976f7700018bddbb,355429,MEDFORD ROGUE VALLEY INTL AP,UNITED STATES,-0800,2012-04-18 16:00:00,42.3811,-122.8722,0.0
5b5df60c976f7700018be043,355734,MORO,UNITED STATES,-0800,2012-04-18 16:00:00,45.4825,-120.7236,0.0
5b5df60c976f7700018be193,355969,NEHALEM,UNITED STATES,-0800,2012-04-18 16:00:00,45.7149,-123.8869,0.0
5b5df60c976f7700018be38b,356546,PENDLETON,UNITED STATES,-0800,2012-04-18 16:00:00,45.66667,-118.71667,0.0
5b5df60c976f7700018be583,356751,PORTLAND INTL AIRPORT,UNITED STATES,-0800,2012-04-18 16:00:00,45.5958,-122.6093,0.0
5b5df60c976f7700018be763,356822,POWERS TELEMETERING,UNITED STATES,-0800,2012-04-18 16:00:00,42.8916,-124.0694,0.0
5b5df60c976f7700018be943,357062,REDMOND AIRPORT,UNITED STATES,-0800,2012-04-18 16:00:00,44.2558,-121.1392,0.0
5b5df60c976f7700018beadb,357127,REX 1 S,UNITED STATES,-0800,2012-04-18 16:00:00,45.3033,-122.9133,0.0
5b5df60c976f7700018bebfb,357171,RIDDLE 4 SW,UNITED STATES,-0800,2012-04-18 16:00:00,42.9241,-123.4291,0.0
5b5df60c976f7700018bed63,357500,SALEM AP (MCNARY FIELD),UNITED STATES,-0800,2012-04-18 16:00:00,44.905,-123.0011,0.01
5b5df60c976f7700018bef73,357554,SANTIAM JUNCTION,UNITED STATES,-0800,2012-04-18 16:00:00,44.4355,-121.9428,0.0
5b5df60c976f7700018bf363,357698,SEXTON SUMMIT,UNITED STATES,-0800,2012-04-18 16:00:00,42.6003,-123.3641,0.0
5b5df60c976f7700018bf5d3,357823,SILVERTON,UNITED STATES,-0800,2012-04-18 16:00:00,45.0058,-122.7739,0.0
5b5df60c976f7700018bf813,358182,SUMMIT,UNITED STATES,-0800,2012-04-18 16:00:00,44.6369,-123.5786,0.0
5b5df60c976f7700018bfa53,358466,THREE LYNX,UNITED STATES,-0800,2012-04-18 16:00:00,45.1219,-122.07,0.0
5b5df60c976f7700018bfbeb,358504,TILLAMOOK 9 E,UNITED STATES,-0800,2012-04-18 16:00:00,45.46667,-123.66667,0.0
5b5df60c976f7700018bfdb3,358512,TILLER 15 ENE,UNITED STATES,-0800,2012-04-18 16:00:00,43.0067,-122.6961,0.0
5b5df60c976f7700018bff33,358514,TILLER,UNITED STATES,-0800,2012-04-18 16:00:00,42.93,-122.9467,0.0
5b5df60c976f7700018c0143,358884,VERNONIA NO. 2,UNITED STATES,-0800,2012-04-18 16:00:00,45.8652,-123.1902,0.0
5b5df60c976f7700018c0323,359390,WILLIAMS 1 NW,UNITED STATES,-0800,2012-04-18 16:00:00,42.2283,-123.2858,0.0
5b5df60c976f7700018c0443,359581,YAQUINA BAY LIGHTBOAT STN,UNITED STATES,-0800,2012-04-18 16:00:00,44.63333,-124.05,0.0
5b5df60c976f7700018c05c6,360106,ALLENTOWN LEHIGH VALLEY INTERNATIONAL AIRPORT,UNITED STATES,-0500,2012-04-18 16:00:00,40.64985,-75.44771,0.0
5b5df60c976f7700018c0a76,361705,CONFLUENCE 1 SW DAM,UNITED STATES,-0500,2012-04-18 16:00:00,39.7994,-79.3665,0.0
5b5df60c976f7700018c14de,365703,MIDDLETOWN HARRISBURG INT'L AP,UNITED STATES,-0500,2012-04-18 16:00:00,40.1962,-76.7724,0.0
5b5df60c976f7700018c19d6,366889,PHILADELPHIA INTL AP,UNITED STATES,-0500,2012-04-18 16:00:00,39.87327,-75.22678,0.0
5b5df60c976f7700018c1ee6,367938,SELLERSVILLE,UNITED STATES,-0500,2012-04-18 16:00:00,40.335,-75.313,0.0
5b5df60c976f7700018c2b46,380170,ANDERSON FAA AIRPORT,UNITED STATES,-0500,2012-04-18 16:00:00,34.4977,-82.7097,0.04
5b5df60c976f7700018c2c36,380613,BELTON 7 NNE,UNITED STATES,-0500,2012-04-18 16:00:00,34.60148,-82.43323,0.0
5b5df60c976f7700018c2cde,380736,BISHOPVILLE 1ENE,UNITED STATES,-0500,2012-04-18 16:00:00,34.2105,-80.2304,0.0
5b5df60c976f7700018c2d56,381277,CALHOUN FALLS,UNITED STATES,-0500,2012-04-18 16:00:00,34.0905,-82.5883,0.0
5b5df60c976f7700018c2e16,381544,CHARLESTON INTL. AIRPORT,UNITED STATES,-0500,2012-04-18 16:00:00,32.89943,-80.04075,0.0
5b5df60c976f7700018c2ed6,381726,CLARKS HILL 1 W,UNITED STATES,-0500,2012-04-18 16:00:00,33.6634,-82.1897,0.0
5b5df60c976f7700018c2f66,381770,CLEMSON UNIVERSITY,UNITED STATES,-0500,2012-04-18 16:00:00,34.66036,-82.82325,0.0
5b5df60c976f7700018c3056,381939,COLUMBIA METROPOLITAN AP,UNITED STATES,-0500,2012-04-18 16:00:00,33.9419,-81.1181,0.0
5b5df60c976f7700018c3176,383106,FLORENCE REGIONAL AP,UNITED STATES,-0500,2012-04-18 16:00:00,34.1852,-79.7238,0.0
5b5df60c976f7700018c3266,383470,GEORGETOWN COUNTY AIRPORT,UNITED STATES,-0500,2012-04-18 16:00:00,33.3169,-79.3227,0.0
5b5df60c976f7700018c333e,383747,GRNVL SPART INTL AP,UNITED STATES,-0500,2012-04-18 16:00:00,34.8842,-82.2209,0.0
5b5df60c976f7700018c345e,384581,JOCASSEE 8 WNW,UNITED STATES,-0500,2012-04-18 16:00:00,34.983,-83.0677,0.0
5b5df60c976f7700018c3506,384918,LANCASTER 3 SW,UNITED STATES,-0500,2012-04-18 16:00:00,34.7356,-80.7884,0.0
5b5df60c976f7700018c357e,385017,LAURENS,UNITED STATES,-0500,2012-04-18 16:00:00,34.49878,-82.02196,0.0
5b5df60c976f7700018c3656,385232,LOCKHART,UNITED STATES,-0500,2012-04-18 16:00:00,34.7794,-81.4563,0.1
5b5df60c976f7700018c372e,385946,MONCKS CORNER 4 N,UNITED STATES,-0500,2012-04-18 16:00:00,33.2425,-79.9869,0.0
5b5df60c976f7700018c37d6,386114,MULLINS,UNITED STATES,-0500,2012-04-18 16:00:00,34.1944,-79.2472,0.0
5b5df60c976f7700018c38c6,386300,NORTH MYRTLE BEACH GRAND STRAND AP,UNITED STATES,-0500,2012-04-18 16:00:00,33.81167,-78.72389,0.0
5b5df60c976f7700018c3a16,386831,PICKENS,UNITED STATES,-0500,2012-04-18 16:00:00,34.8813,-82.7188,0.0
5b5df60c976f7700018c3aee,387712,SANTEE COOPER SPILLWAY,UNITED STATES,-0500,2012-04-18 16:00:00,33.4487,-80.1623,0.0
5b5df60c976f7700018c3bde,388707,TRAVELERS REST 1 S,UNITED STATES,-0500,2012-04-18 16:00:00,34.9485,-82.4431,0.1
5b5df60c976f7700018c3cfe,389327,WINNSBORO,UNITED STATES,-0500,2012-04-18 16:00:00,34.3706,-81.0825,0.0
5b5df60c976f7700018c3f9d,391452,CARPENTER 4NNE,UNITED STATES,-0600,2012-04-18 16:00:00,44.6886,-97.8888,0.0
5b5df60c976f7700018c42e5,394037,HOWARD,UNITED STATES,-0600,2012-04-18 16:00:00,44.01214,-97.53153,0.0
5b5df60c976f7700018c441d,394127,HURON REGIONAL AP,UNITED STATES,-0600,2012-04-18 16:00:00,44.3981,-98.2231,0.0
5b5df60c976f7700018c4554,394184,INTERIOR 3 NE,UNITED STATES,-0700,2012-04-18 16:00:00,43.7483,-101.9413,0.0
5b5df60c976f7700018c47f5,394766,LAKE SHARPE PROJECT,UNITED STATES,-0600,2012-04-18 16:00:00,44.0644,-99.4602,0.0
5b5df60c976f7700018c4bcd,395620,MISSION,UNITED STATES,-0600,2012-04-18 16:00:00,43.3061,-100.6558,0.0
5b5df60c976f7700018c4f44,396304,ORAL,UNITED STATES,-0700,2012-04-18 16:00:00,43.4033,-103.2683,0.0
5b5df60c976f7700018c50ad,396597,PIERRE REGIONAL AP,UNITED STATES,-0600,2012-04-18 16:00:00,44.3813,-100.2855,0.0
5b5df60c976f7700018c52bc,396937,RAPID CITY WBO AIRPORT,UNITED STATES,-0700,2012-04-18 16:00:00,44.15,-103.1,0.0
5b5df60c976f7700018c55ed,397667,SIOUX FALLS FOSS FIELD,UNITED STATES,-0600,2012-04-18 16:00:00,43.5778,-96.7539,0.0
5b5df60c976f7700018c5755,397992,STEPHAN 2 NW,UNITED STATES,-0600,2012-04-18 16:00:00,44.2662,-99.4431,0.0
5b5df60c976f7700018c588d,398622,VERMILLION 2 SE,UNITED STATES,-0600,2012-04-18 16:00:00,42.7625,-96.9194,0.0
5b5df60c976f7700018c59c5,398932,WATERTOWN REGIONAL AP,UNITED STATES,-0600,2012-04-18 16:00:00,44.9047,-97.1494,0.0
5b5df60c976f7700018c5afd,398980,WAUBAY NATL WILD LIFE,UNITED STATES,-0600,2012-04-18 16:00:00,45.4247,-97.327,0.0
5b5df60c976f7700018c5d56,401094,BRISTOL AP,UNITED STATES,-0500,2012-04-18 16:00:00,36.47967,-82.39898,0.02
5b5df60c976f7700018c5f35,401585,CENTERVILLE 4NE,UNITED STATES,-0600,2012-04-18 16:00:00,35.8318,-87.4219,0.0
5b5df60c976f7700018c600e,401656,CHATTANOOGA AP,UNITED STATES,-0500,2012-04-18 16:00:00,35.03362,-85.20044,0.0
5b5df60c976f7700018c6235,402197,CROSSVILLE MEMORIAL AP,UNITED STATES,-0600,2012-04-18 16:00:00,35.9509,-85.0813,0.0
5b5df60c976f7700018c6355,402680,DYERSBURG,UNITED STATES,-0600,2012-04-18 16:00:00,35.9986,-89.409,0.0
5b5df60c976f7700018c6446,402934,ERWIN 1 W,UNITED STATES,-0500,2012-04-18 16:00:00,36.1422,-82.4261,0.1
5b5df60c976f7700018c678e,404950,KNOXVILLE AP,UNITED STATES,-0500,2012-04-18 16:00:00,35.8181,-83.9858,0.0
5b5df60c976f7700018c6925,405210,LEXINGTON,UNITED STATES,-0600,2012-04-18 16:00:00,35.6502,-88.3904,0.0
5b5df60c976f7700018c69cd,405332,LIVINGSTON RADIO WLIV,UNITED STATES,-0600,2012-04-18 16:00:00,36.3776,-85.3365,0.0
5b5df60c976f7700018c6ef5,406402,NASHVILLE INTL AP,UNITED STATES,-0600,2012-04-18 16:00:00,36.11889,-86.68917,0.0
5b5df60c976f7700018c7076,406742,OAK RIDGE ASOS,UNITED STATES,-0500,2012-04-18 16:00:00,36.023,-84.2337,0.0
5b5df60c976f7700018c717e,406750,OAK RIDGE ATDD,UNITED STATES,-0500,2012-04-18 16:00:00,35.998,-84.2192,0.0
5b5df60c976f7700018c7436,408540,SPRING CITY,UNITED STATES,-0500,2012-04-18 16:00:00,35.6763,-84.8547,0.0
5b5df60c976f7700018c753e,408766,SUNBRIGHT 1 W,UNITED STATES,-0500,2012-04-18 16:00:00,36.2492,-84.6969,0.0
5b5df60c976f7700018cae9d,417066,PITTSBURG 5 SSE,UNITED STATES,-0600,2012-04-18 16:00:00,32.9263,-94.9392,0.0
5b5df60c976f7700018cc7d4,421164,MOAB CANYONLAND AP,UNITED STATES,-0700,2012-04-18 16:00:00,38.75,-109.76278,0.0
5b5df60c976f7700018cca8c,421759,COTTONWOOD WEIR,UNITED STATES,-0700,2012-04-18 16:00:00,40.6189,-111.7836,0.0
5b5df60c976f7700018ccc0c,422385,ECHO DAM,UNITED STATES,-0700,2012-04-18 16:00:00,40.96554,-111.4336,0.0
5b5df60c976f7700018ccf9c,425186,LOGAN UTAH ST U,UNITED STATES,-0700,2012-04-18 16:00:00,41.7456,-111.8033,0.0
5b5df60c976f7700018cd044,425194,LOGAN 5 SW EXP FARM,UNITED STATES,-0700,2012-04-18 16:00:00,41.6661,-111.8913,0.1
5b5df60c976f7700018cd284,425892,MOUNTAIN DELL DAM,UNITED STATES,-0700,2012-04-18 16:00:00,40.74853,-111.72323,0.0
5b5df60c976f7700018cd464,426374,OAKLEY 3 NE,UNITED STATES,-0700,2012-04-18 16:00:00,40.73928,-111.24148,0.0
5b5df60c976f7700018cd674,426414,OGDEN SUGAR FACTORY,UNITED STATES,-0700,2012-04-18 16:00:00,41.2319,-112.0283,0.0
5b5df60c976f7700018cdb6c,427598,SALT LAKE CITY INTL ARPT,UNITED STATES,-0700,2012-04-18 16:00:00,40.7781,-111.9694,0.0
5b5df60c976f7700018cdc74,427686,SANTAQUIN CHLORINATOR,UNITED STATES,-0700,2012-04-18 16:00:00,39.9578,-111.7794,0.0
5b5df60c976f7700018cdd4c,427729,SCOFIELD-SKYLINE MINE,UNITED STATES,-0700,2012-04-18 16:00:00,39.6842,-111.2055,0.0
5b5df60c976f7700018cea26,435768,NORTH HARTLAND LAKE,UNITED STATES,-0500,2012-04-18 16:00:00,43.6027,-72.3621,0.0
5b5df60c976f7700018cec66,440166,ALTAVISTA,UNITED STATES,-0500,2012-04-18 16:00:00,37.1122,-79.2751,0.2
5b5df60c976f7700018cecde,440561,BEDFORD 4 NW,UNITED STATES,-0500,2012-04-18 16:00:00,37.3788,-79.5588,0.2
5b5df60c976f7700018cedce,440766,BLACKSBURG 3 SE,UNITED STATES,-0500,2012-04-18 16:00:00,37.08333,-80.4,0.0
5b5df60c976f7700018cee5e,440993,BREMO BLUFF,UNITED STATES,-0500,2012-04-18 16:00:00,37.7091,-78.2885,0.0
5b5df60c976f7700018cef7e,441614,CHATHAM 4 N,UNITED STATES,-0500,2012-04-18 16:00:00,36.86667,-79.31667,0.0
5b5df60c976f7700018cf086,442250,DANVILLE REGIONAL AIRPORT,UNITED STATES,-0500,2012-04-18 16:00:00,36.5729,-79.3351,0.0
5b5df60c976f7700018cf1be,443272,GALAX WATER PLANT,UNITED STATES,-0500,2012-04-18 16:00:00,36.65452,-80.91732,0.0
5b5df60c976f7700018cf24e,443310,GATHRIGHT DAM,UNITED STATES,-0500,2012-04-18 16:00:00,37.9458,-79.9542,0.1
5b5df60c976f7700018cf3b6,445120,LYNCHBURG INTL AP,UNITED STATES,-0500,2012-04-18 16:00:00,37.3208,-79.2067,0.0
5b5df60c976f7700018cf4be,445595,MILLGAP,UNITED STATES,-0500,2012-04-18 16:00:00,38.3064,-79.7197,0.0
5b5df60c976f7700018cf5ae,446139,NORFOLK INTL AP,UNITED STATES,-0500,2012-04-18 16:00:00,36.9033,-76.1922,0.0
5b5df60c976f7700018cf776,446712,PIEDMONT RESEARCH STA,UNITED STATES,-0500,2012-04-18 16:00:00,38.2323,-78.1202,0.1
5b5df60c976f7700018cf866,446955,PULASKI 2 E,UNITED STATES,-0500,2012-04-18 16:00:00,37.0556,-80.7842,0.1
5b5df60c976f7700018cf96e,447201,RICHMOND INTERNATIONAL  AP,UNITED STATES,-0500,2012-04-18 16:00:00,37.51151,-77.32344,0.0
5b5df60c976f7700018cfaa6,447285,ROANOKE REGIONAL AP,UNITED STATES,-0500,2012-04-18 16:00:00,37.3169,-79.9741,0.05
5b5df60c976f7700018cfbc6,447338,ROCKY MOUNT,UNITED STATES,-0500,2012-04-18 16:00:00,36.9769,-79.8961,0.0
5b5df60c976f7700018cfcce,448022,STAFFORDSVILLE 3 ENE,UNITED STATES,-0500,2012-04-18 16:00:00,37.2715,-80.71343,0.0
5b5df60c976f7700018cfd76,448547,TROUT DALE,UNITED STATES,-0500,2012-04-18 16:00:00,36.7,-81.43333,0.0
5b5df60c976f7700018cff0e,448903,WASHINGTON DULLES INTL AP,UNITED STATES,-0500,2012-04-18 16:00:00,38.9349,-77.4473,0.01
5b5df60c976f7700018d002e,448906,WASHINGTON REAGAN NATIONAL AIRPORT,UNITED STATES,-0500,2012-04-18 16:00:00,38.8472,-77.03454,0.0
5b5df60c976f7700018d0226,449169,WILLIS,UNITED STATES,-0500,2012-04-18 16:00:00,36.91349,-80.50751,0.0
5b5df60c976f7700018d0376,449272,WOOLWINE 1 SE,UNITED STATES,-0500,2012-04-18 16:00:00,36.77363,-80.26233,0.0
5b5df60c976f7700018d0466,449301,WYTHEVILLE,UNITED STATES,-0500,2012-04-18 16:00:00,36.96667,-81.1,0.0
5b5df60c976f7700018d0583,450849,BOUNDARY SWITCHYARD,UNITED STATES,-0800,2012-04-18 16:00:00,48.9806,-117.3585,0.0
5b5df60c976f7700018d071b,451160,CARSON FISH HATCHERY,UNITED STATES,-0800,2012-04-18 16:00:00,45.8677,-121.9733,0.0
5b5df60c976f7700018d0943,451759,COUGAR 4 SW,UNITED STATES,-0800,2012-04-18 16:00:00,46.0086,-122.3455,0.0
5b5df60c976f7700018d0b0b,451968,DALLESPORT AIRPORT,UNITED STATES,-0800,2012-04-18 16:00:00,45.6194,-121.1661,0.0
5b5df60c976f7700018d0dab,452064,DEER PARK AIRPORT,UNITED STATES,-0800,2012-04-18 16:00:00,47.97417,-117.42833,0.0
5b5df60c976f7700018d0f43,452384,EASTON,UNITED STATES,-0800,2012-04-18 16:00:00,47.2422,-121.1869,0.0
5b5df60c976f7700018d10db,452614,EPHRATA MUNICIPAL AP,UNITED STATES,-0800,2012-04-18 16:00:00,47.3078,-119.5154,0.0
5b5df60c976f7700018d152b,454764,LONGMIRE RAINIER NPS,UNITED STATES,-0800,2012-04-18 16:00:00,46.7491,-121.8119,0.0
5b5df60c976f7700018d16ab,454999,MARBLEMOUNT RS,UNITED STATES,-0800,2012-04-18 16:00:00,48.538,-121.4502,0.0
5b5df60c976f7700018d1993,456114,OLYMPIA AIRPORT,UNITED STATES,-0800,2012-04-18 16:00:00,46.9733,-122.9033,0.0
5b5df60c976f7700018d1ae3,456472,PESHASTIN,UNITED STATES,-0800,2012-04-18 16:00:00,47.5837,-120.6203,0.0
5b5df60c976f7700018d1cdb,456858,QUILLAYUTE STATE AIRPORT,UNITED STATES,-0800,2012-04-18 16:00:00,47.9375,-124.555,0.02
5b5df60c976f7700018d1ed3,456864,QUINAULT RIVER RANGER STN,UNITED STATES,-0800,2012-04-18 16:00:00,47.5,-123.81667,0.1
5b5df60c976f7700018d218b,457473,SEATTLE TACOMA INTL AP,UNITED STATES,-0800,2012-04-18 16:00:00,47.4444,-122.3138,0.0
5b5df60c976f7700018d239b,457585,SHELTON SANDERSON FIELD,UNITED STATES,-0800,2012-04-18 16:00:00,47.238,-123.1408,0.02
5b5df60c976f7700018d25ab,457781,SNOQUALMIE PASS,UNITED STATES,-0800,2012-04-18 16:00:00,47.4247,-121.4138,0.0
5b5df60c976f7700018d2713,457938,SPOKANE INTL AP,UNITED STATES,-0800,2012-04-18 16:00:00,47.6216,-117.528,0.0
5b5df60c976f7700018d29b3,458348,TEKOA,UNITED STATES,-0800,2012-04-18 16:00:00,47.2274,-117.0836,0.0
5b5df60c976f7700018d2b03,458715,UPPER BAKER DAM,UNITED STATES,-0800,2012-04-18 16:00:00,48.6524,-121.693,0.0
5b5df60c976f7700018d2c83,459082,WENATCHEE PANGBORN AP,UNITED STATES,-0800,2012-04-18 16:00:00,47.3977,-120.2013,0.0
5b5df60c976f7700018d2da3,459200,WHITMAN MISSION,UNITED STATES,-0800,2012-04-18 16:00:00,46.0436,-118.4628,0.0
5b5df60c976f7700018d308e,460582,BECKLEY RALEIGH COUNTY AIRPORT,UNITED STATES,-0500,2012-04-18 16:00:00,37.7836,-81.123,0.03
5b5df60c976f7700018d31f6,460921,BLUEFIELD MERCER COUNTY AIRPORT,UNITED STATES,-0500,2012-04-18 16:00:00,37.2978,-81.20366,0.05
5b5df60c976f7700018d332e,461220,BUCKHANNON,UNITED STATES,-0500,2012-04-18 16:00:00,38.9803,-80.2201,0.0
5b5df60c976f7700018d3406,461570,CHARLESTON - YEAGER AIRPORT,UNITED STATES,-0500,2012-04-18 16:00:00,38.3794,-81.59,0.1
5b5df60c976f7700018d34f6,461579,CHARLESTON WFO,UNITED STATES,-0500,2012-04-18 16:00:00,38.31332,-81.71857,0.1
5b5df60c976f7700018d3646,462717,ELKINS 1N,UNITED STATES,-0500,2012-04-18 16:00:00,38.9267,-79.8295,0.1
5b5df60c976f7700018d377e,462718,ELKINS 1 SE,UNITED STATES,-0500,2012-04-18 16:00:00,38.91667,-79.83333,0.04
5b5df60c976f7700018d389e,463072,FLAT TOP,UNITED STATES,-0500,2012-04-18 16:00:00,37.5894,-81.0925,0.0
5b5df60c976f7700018d39be,463361,GASSAWAY,UNITED STATES,-0500,2012-04-18 16:00:00,38.6649,-80.7672,0.0
5b5df60c976f7700018d3a7e,463544,GLENVILLE,UNITED STATES,-0500,2012-04-18 16:00:00,38.9339,-80.8317,0.0
5b5df60c976f7700018d3b3e,463669,GREENBANK OBSERVATORY,UNITED STATES,-0500,2012-04-18 16:00:00,38.4311,-79.819,0.0
5b5df60c976f7700018d3bce,463749,GRIFFITHSVILLE,UNITED STATES,-0500,2012-04-18 16:00:00,38.2384,-81.985,0.0
5b5df60c976f7700018d3d06,464393,HUNTINGTON TRI-STATE AIRPORT,UNITED STATES,-0500,2012-04-18 16:00:00,38.365,-82.555,0.0
5b5df60c976f7700018d3e3e,465323,LIVERPOOL,UNITED STATES,-0500,2012-04-18 16:00:00,38.8955,-81.5311,0.0
5b5df60c976f7700018d3f5e,465353,LOGAN,UNITED STATES,-0500,2012-04-18 16:00:00,37.866,-81.9845,0.1
5b5df60c976f7700018d40ae,465707,MARTINSBURG EASTERN WEST VIRGINIA REGIONAL AIRPORT,UNITED STATES,-0500,2012-04-18 16:00:00,39.4038,-77.945,0.01
5b5df60c976f7700018d41ce,466591,OAK HILL,UNITED STATES,-0500,2012-04-18 16:00:00,37.9715,-81.1507,0.1
5b5df60c976f7700018d42ee,466849,PARKERSBURG AIRPORT,UNITED STATES,-0500,2012-04-18 16:00:00,39.3395,-81.4438,0.0
5b5df60c976f7700018d440e,467730,ROMNEY 3 NNE,UNITED STATES,-0500,2012-04-18 16:00:00,39.38333,-78.73333,0.0
5b5df60c976f7700018d464e,469011,UNION,UNITED STATES,-0500,2012-04-18 16:00:00,37.6,-80.53333,0.1
5b5df60c976f7700018d4726,469086,VALLEY HEAD,UNITED STATES,-0500,2012-04-18 16:00:00,38.5453,-80.0369,0.0
5b5df60c976f7700018d48bd,470124,ALMA DAM 4,UNITED STATES,-0600,2012-04-18 16:00:00,44.3271,-91.9194,0.0
5b5df60c976f7700018d4b5d,470855,BLACK RIVER FALLS SEWAGE,UNITED STATES,-0600,2012-04-18 16:00:00,44.2903,-90.8538,0.0
5b5df60c976f7700018d4d85,471578,CHIPPEWA FALLS,UNITED STATES,-0600,2012-04-18 16:00:00,44.9277,-91.4081,0.0
5b5df60c976f7700018d4ea5,471676,CLINTONVILLE,UNITED STATES,-0600,2012-04-18 16:00:00,44.6227,-88.7483,0.0
5b5df60c976f7700018d4f7d,471897,CRIVITZ HIGH FALLS,UNITED STATES,-0600,2012-04-18 16:00:00,45.35807,-88.19222,0.0
5b5df60c976f7700018d5145,472428,EAU CLAIRE REGIONAL AP,UNITED STATES,-0600,2012-04-18 16:00:00,44.8665,-91.4879,0.0
5b5df60c976f7700018d527d,472447,EAU PLEINE RESERVOIR,UNITED STATES,-0600,2012-04-18 16:00:00,44.7722,-89.76745,0.0
5b5df60c976f7700018d536d,472973,FRIENDSHIP,UNITED STATES,-0600,2012-04-18 16:00:00,43.975,-89.8309,0.0
5b5df60c976f7700018d551d,473269,GREEN BAY A S INTL AP,UNITED STATES,-0600,2012-04-18 16:00:00,44.4794,-88.1366,0.04
5b5df60c976f7700018d566d,473511,HAYWARD RANGER STA,UNITED STATES,-0600,2012-04-18 16:00:00,46.0002,-91.5074,0.0
5b5df60c976f7700018d5715,473636,ARGONNE 1.5-NW,UNITED STATES,-0600,2012-04-18 16:00:00,45.67347,-88.90426,0.0
5b5df60c976f7700018d5835,474370,LA CROSSE MUNICIPAL AP,UNITED STATES,-0600,2012-04-18 16:00:00,43.8788,-91.2527,0.0
5b5df60c976f7700018d5b05,474894,LUCK,UNITED STATES,-0600,2012-04-18 16:00:00,45.5733,-92.4852,0.0
5b5df60c976f7700018d5d5d,475120,MARSHFIELD EXP FARM,UNITED STATES,-0600,2012-04-18 16:00:00,44.64113,-90.13332,0.0
5b5df60c976f7700018d5e65,475255,MEDFORD,UNITED STATES,-0600,2012-04-18 16:00:00,45.1307,-90.3438,0.0
5b5df60c976f7700018d5f55,475335,MENOMONIE,UNITED STATES,-0600,2012-04-18 16:00:00,44.8743,-91.9364,0.0
5b5df60d976f7700018d608d,475352,MERCER RANGER STA,UNITED STATES,-0600,2012-04-18 16:00:00,46.1683,-90.0722,0.1
5b5df60d976f7700018d614d,475364,MERRILL,UNITED STATES,-0600,2012-04-18 16:00:00,45.17849,-89.66154,0.0
5b5df60d976f7700018d626d,475479,MILWAUKEE NB SIDE PORT,UNITED STATES,-0600,2012-04-18 16:00:00,43.11667,-87.93333,0.0
5b5df60d976f7700018d63bd,475524,MINONG RANGER STATION,UNITED STATES,-0600,2012-04-18 16:00:00,46.1006,-91.8178,0.0
5b5df60d976f7700018d647d,475948,NEW RICHMOND,UNITED STATES,-0600,2012-04-18 16:00:00,45.1166,-92.5645,0.0
5b5df60d976f7700018d6555,476398,PARK FALLS,UNITED STATES,-0600,2012-04-18 16:00:00,45.93333,-90.45,0.0
5b5df60d976f7700018d6615,476510,PESHTIGO,UNITED STATES,-0600,2012-04-18 16:00:00,45.02817,-87.73588,0.0
5b5df60d976f7700018d671d,476518,PHELPS,UNITED STATES,-0600,2012-04-18 16:00:00,46.0663,-89.0752,0.0
5b5df60d976f7700018d6825,476854,PRENTICE,UNITED STATES,-0600,2012-04-18 16:00:00,45.5463,-90.3129,0.0
5b5df60d976f7700018d6915,476939,RAINBOW RSVR-LK TOMAHAWK,UNITED STATES,-0600,2012-04-18 16:00:00,45.8341,-89.5472,0.1
5b5df60d976f7700018d6a65,477132,RICE LAKE,UNITED STATES,-0600,2012-04-18 16:00:00,45.4163,-91.772,0.0
5b5df60d976f7700018d6b3d,477140,RICE RESERVOIR-TOMAHAWK,UNITED STATES,-0600,2012-04-18 16:00:00,45.5397,-89.7477,0.1
5b5df60d976f7700018d6be5,478027,SPOONER AG RESEARCH STATION,UNITED STATES,-0600,2012-04-18 16:00:00,45.8236,-91.8761,0.0
5b5df60d976f7700018d6cbd,478259,STRUM 4 S,UNITED STATES,-0600,2012-04-18 16:00:00,44.4965,-91.3965,0.0
5b5df60d976f7700018d6e85,478515,TOMAH RANGER STATION  2,UNITED STATES,-0600,2012-04-18 16:00:00,43.9713,-90.4679,0.0
5b5df60d976f7700018d6f75,478589,TREMPEALEAU DAM 6,UNITED STATES,-0600,2012-04-18 16:00:00,43.9994,-91.4378,0.0
5b5df60d976f7700018d70c5,478968,WAUSAU ASOS,UNITED STATES,-0600,2012-04-18 16:00:00,44.9288,-89.6277,0.0
5b5df60d976f7700018d71e5,479176,WHITE LAKE 1 SE,UNITED STATES,-0600,2012-04-18 16:00:00,45.1452,-88.7416,0.1
5b5df60d976f7700018d72d5,479218,WILLARD,UNITED STATES,-0600,2012-04-18 16:00:00,44.7313,-90.7216,0.0
5b5df60d976f7700018d73c5,479304,WINTER,UNITED STATES,-0600,2012-04-18 16:00:00,45.7992,-90.9947,0.0
5b5df60d976f7700018d7634,481570,CASPER-NATRONA COUNTY AP,UNITED STATES,-0700,2012-04-18 16:00:00,42.89779,-106.47371,0.0
5b5df60d976f7700018d797c,483050,ENCAMPMENT,UNITED STATES,-0700,2012-04-18 16:00:00,41.2058,-106.7883,0.0
5b5df60d976f7700018d7a3c,484910,JACKSON,UNITED STATES,-0700,2012-04-18 16:00:00,43.4863,-110.7615,0.0
5b5df60d976f7700018d7b44,484930,JELM 2S,UNITED STATES,-0700,2012-04-18 16:00:00,41.0599,-106.0263,0.0
5b5df60d976f7700018d7dfc,485415,LARAMIE AP,UNITED STATES,-0700,2012-04-18 16:00:00,41.3167,-105.6833,0.0
5b5df60d976f7700018d8414,487533,RAWLINS AP,UNITED STATES,-0700,2012-04-18 16:00:00,41.8,-107.2,0.0
5b5df60d976f7700018d8684,487845,ROCK SPRINGS AP,UNITED STATES,-0700,2012-04-18 16:00:00,41.59466,-109.05296,0.0
5b5df60d976f7700018d899c,488626,STORY,UNITED STATES,-0700,2012-04-18 16:00:00,44.5767,-106.9062,0.0
5b5df60d976f7700018d8b7c,488858,TENSLEEP 16SSE,UNITED STATES,-0700,2012-04-18 16:00:00,43.8111,-107.3652,0.0
5b5df60d976f7700018d8dbc,488996,TORRINGTON MUNICIPAL AP,UNITED STATES,-0700,2012-04-18 16:00:00,42.0613,-104.1584,0.0
5b5df60d976f7700018d9012,500352,ANNETTE WSO AP,UNITED STATES,-0900,2012-04-18 16:00:00,55.0389,-131.5787,0.0
5b5df60d976f7700018d926a,500546,BARROW W POST-W ROGERS AP,UNITED STATES,-0900,2012-04-18 16:00:00,71.2834,-156.7815,0.0
5b5df60d976f7700018d95e2,502102,COLD BAY AP,UNITED STATES,-0900,2012-04-18 16:00:00,55.22083,-162.7325,0.01
5b5df60d976f7700018d9942,503490,HAINES AIRPORT,UNITED STATES,-0900,2012-04-18 16:00:00,59.2433,-135.5094,0.0
5b5df60d976f7700018d9bca,504100,JUNEAU AIRPORT,UNITED STATES,-0900,2012-04-18 16:00:00,58.3566,-134.564,0.0
5b5df60d976f7700018da032,504901,KLAWOCK AP,UNITED STATES,-0900,2012-04-18 16:00:00,55.58,-133.075,0.0
5b5df60d976f7700018da2a2,504988,KODIAK AIRPORT,UNITED STATES,-0900,2012-04-18 16:00:00,57.75111,-152.48556,0.01
5b5df60d976f7700018da782,508118,ST PAUL ISLAND AP,UNITED STATES,-0900,2012-04-18 16:00:00,57.15528,-170.22222,0.0
5b5df60d976f7700018da902,508494,SITKA AIRPORT,UNITED STATES,-0900,2012-04-18 16:00:00,57.0481,-135.3647,0.0
5b5df60d976f7700018dac02,508976,TALKEETNA AP,UNITED STATES,-0900,2012-04-18 16:00:00,62.32,-150.095,0.0
5b5df60d976f7700018db4b9,511303,HAWAII VOL. NP HQ.  54,UNITED STATES,-1000,2012-04-18 16:00:00,19.4297,-155.2562,0.0
5b5df60d976f7700018db879,511492,HILO INTERNATIONAL AP 87,UNITED STATES,-1000,2012-04-18 16:00:00,19.7191,-155.053,0.08
5b5df60d976f7700018dbfb1,512572,KAHULUI AP,UNITED STATES,-1000,2012-04-18 16:00:00,20.89972,-156.42861,0.0
5b5df60d976f7700018dc161,512600,KAHUA RANCH HQTRS 176.3,UNITED STATES,-1000,2012-04-18 16:00:00,20.1248,-155.7887,0.0
5b5df60d976f7700018dc521,513510,KAUMANA 88.1,UNITED STATES,-1000,2012-04-18 16:00:00,19.6801,-155.1432,0.0
5b5df60d976f7700018dcc89,514459,KIHALANI  132.5,UNITED STATES,-1000,2012-04-18 16:00:00,19.9714,-155.2359,0.0
5b5df60d976f7700018dcf11,515102,KURTISTOWN   91.14,UNITED STATES,-1000,2012-04-18 16:00:00,19.5914,-155.0638,0.0
5b5df60d976f7700018dd1f9,515580,LIHUE WSO AP 1020.1,UNITED STATES,-1000,2012-04-18 16:00:00,21.98389,-159.34056,0.0
5b5df60d976f7700018dd631,516534,MOLOKAI KAUNAKAKAI MOLOKAI AP,UNITED STATES,-1000,2012-04-18 16:00:00,21.1545,-157.0961,0.0
5b5df60d976f7700018ddb89,517209,PAAUHAU MAUKA    217.2,UNITED STATES,-1000,2012-04-18 16:00:00,20.0699,-155.4444,0.0
5b5df60d976f7700018ddd81,517465,PAHOA SCHOOL SITE  64,UNITED STATES,-1000,2012-04-18 16:00:00,19.4904,-154.9432,0.0
5b5df60d976f7700018dfaed,914226,GUAM INTERNATIONAL AP,GUAM,+1000,2012-04-18 16:00:00,13.48333,144.8,0.0
5b5df609976f770001878116,010008,ABBEVILLE,UNITED STATES,-0600,2012-04-18 17:00:00,31.5702,-85.2482,0.1
5b5df609976f7700018781d6,010063,ADDISON,UNITED STATES,-0600,2012-04-18 17:00:00,34.2553,-87.1814,0.0
5b5df609976f770001878296,010116,ALABASTER SHELBY COUNTY AP,UNITED STATES,-0600,2012-04-18 17:00:00,33.17833,-86.78167,0.0
5b5df609976f770001878326,010140,ALBERTA,UNITED STATES,-0600,2012-04-18 17:00:00,32.2322,-87.4104,0.0
5b5df609976f77000187839e,010252,ANDALUSIA 3 W,UNITED STATES,-0600,2012-04-18 17:00:00,31.3071,-86.5226,0.0
5b5df609976f770001878476,010272,ANNISTON METROPOLITAN AP,UNITED STATES,-0600,2012-04-18 17:00:00,33.5872,-85.8556,0.0
5b5df609976f770001878566,010369,ASHLAND 3 ENE,UNITED STATES,-0600,2012-04-18 17:00:00,33.2941,-85.7788,0.0
5b5df609976f7700018785f6,010390,ATHENS,UNITED STATES,-0600,2012-04-18 17:00:00,34.7752,-86.9508,0.0
5b5df609976f77000187869e,010402,ATMORE,UNITED STATES,-0600,2012-04-18 17:00:00,31.182,-87.439,0.0
5b5df609976f770001878746,010425,AUBURN NO.2,UNITED STATES,-0600,2012-04-18 17:00:00,32.5992,-85.4653,0.0
5b5df609976f77000187884e,010831,BIRMINGHAM AP,UNITED STATES,-0600,2012-04-18 17:00:00,33.56556,-86.745,0.0
5b5df609976f770001878956,011099,BRIDGEPORT 5 NW,UNITED STATES,-0600,2012-04-18 17:00:00,34.9786,-85.8008,0.0
5b5df609976f7700018789fe,012124,DADEVILLE 2,UNITED STATES,-0600,2012-04-18 17:00:00,32.8622,-85.7358,0.0
5b5df609976f770001878aee,012377,DOTHAN 4 NW,UNITED STATES,-0600,2012-04-18 17:00:00,31.28333,-85.4,0.1
5b5df609976f770001878ce6,013519,GREENVILLE,UNITED STATES,-0600,2012-04-18 17:00:00,31.7901,-86.6087,0.0
5b5df609976f770001878dd6,013645,HAMILTON 3 S,UNITED STATES,-0600,2012-04-18 17:00:00,34.0966,-87.9913,0.0
5b5df609976f770001878e7e,014064,HUNTSVILLE WBAS AP,UNITED STATES,-0600,2012-04-18 17:00:00,34.7,-86.58333,0.0
5b5df609976f770001878ffe,014209,JACKSONVILLE,UNITED STATES,-0600,2012-04-18 17:00:00,33.8256,-85.7812,0.0
5b5df609976f77000187911e,015478,MOBILE REGIONAL AP,UNITED STATES,-0600,2012-04-18 17:00:00,30.68833,-88.24556,0.0
5b5df609976f770001879196,015550,MONTGOMERY AP,UNITED STATES,-0600,2012-04-18 17:00:00,32.2997,-86.4075,0.0
5b5df609976f77000187923e,015553,MONTGOMERY 6SW,UNITED STATES,-0600,2012-04-18 17:00:00,32.26,-86.218,0.0
5b5df609976f77000187935e,018178,THOMASVILLE,UNITED STATES,-0600,2012-04-18 17:00:00,31.91722,-87.73472,0.0
5b5df609976f7700018793d6,018209,THORSBY EXP STATION,UNITED STATES,-0600,2012-04-18 17:00:00,32.9205,-86.6708,0.0
5b5df609976f77000187944e,018323,TROY,UNITED STATES,-0600,2012-04-18 17:00:00,31.8075,-85.9722,0.0
5b5df609976f7700018794de,018383,TUSCALOOSA ARPT ASOS,UNITED STATES,-0600,2012-04-18 17:00:00,33.2119,-87.6161,0.0
5b5df609976f77000187b48e,034185,LEWISVILLE,UNITED STATES,-0600,2012-04-18 17:00:00,33.3613,-93.5674,0.0
5b5df609976f77000187bb66,035110,NARROWS DAM,UNITED STATES,-0600,2012-04-18 17:00:00,34.1452,-93.7138,0.0
5b5df609976f77000187d79c,041886,COFFEE CREEK RS,UNITED STATES,-0800,2012-04-18 17:00:00,41.0894,-122.7086,0.0
5b5df609976f77000187dea4,042910,EUREKA WFO WOODLEY ISLAND,UNITED STATES,-0800,2012-04-18 17:00:00,40.8097,-124.1602,0.04
5b5df609976f77000187e3cc,043194,FORT SEWARD,UNITED STATES,-0800,2012-04-18 17:00:00,40.2183,-123.6322,0.0
5b5df609976f77000187e6cc,043357,GASQUET RS,UNITED STATES,-0800,2012-04-18 17:00:00,41.8452,-123.9647,0.1
5b5df609976f77000187ee34,043791,HARRISON GULCH RS,UNITED STATES,-0800,2012-04-18 17:00:00,40.3636,-122.965,0.0
5b5df609976f77000187f20c,044074,HONEYDEW 1 SW,UNITED STATES,-0800,2012-04-18 17:00:00,40.2375,-124.1322,0.0
5b5df609976f77000187f35c,044089,HOOPA,UNITED STATES,-0800,2012-04-18 17:00:00,41.0483,-123.6755,0.0
5b5df609976f77000187f464,044191,HYAMPOM,UNITED STATES,-0800,2012-04-18 17:00:00,40.6161,-123.4566,0.0
5b5df609976f77000187f584,044587,KNEELAND 10 SSE,UNITED STATES,-0800,2012-04-18 17:00:00,40.6422,-123.9149,0.0
5b5df609976f77000187fc44,045242,MAD RIVER 12 SE,UNITED STATES,-0800,2012-04-18 17:00:00,40.3186,-123.3738,0.0
5b5df609976f77000187fefc,045623,MILFORD LAUFMAN RS,UNITED STATES,-0800,2012-04-18 17:00:00,40.1414,-120.3533,0.0
5b5df609976f770001880034,045679,MINERAL,UNITED STATES,-0800,2012-04-18 17:00:00,40.3458,-121.6091,0.0
5b5df609976f770001880b74,046513,ORLEANS RS,UNITED STATES,-0800,2012-04-18 17:00:00,41.3033,-123.5344,0.1
5b5df609976f770001881324,047292,RED BLUFF,UNITED STATES,-0800,2012-04-18 17:00:00,40.18333,-122.2,0.0
5b5df609976f77000188145c,047304,REDDING MUNICIPAL AP,UNITED STATES,-0800,2012-04-18 17:00:00,40.5175,-122.2986,0.0
5b5df609976f77000188151c,047342,REDWOOD CREEK O'KANE,UNITED STATES,-0800,2012-04-18 17:00:00,40.9069,-123.8147,0.0
5b5df609976f770001881714,047630,SACRAMENTO EXECUTIVE AP,UNITED STATES,-0800,2012-04-18 17:00:00,38.5069,-121.495,0.0
5b5df609976f77000188244c,048025,SAWYERS BAR RS,UNITED STATES,-0800,2012-04-18 17:00:00,41.3011,-123.133,0.0
5b5df609976f77000188292c,048332,SODA SPRINGS 1 E,UNITED STATES,-0800,2012-04-18 17:00:00,39.3255,-120.3672,0.0
5b5df609976f77000188319c,049053,TULELAKE,UNITED STATES,-0800,2012-04-18 17:00:00,41.96,-121.4744,0.0
5b5df609976f7700018834e4,049490,WEAVERVILLE,UNITED STATES,-0800,2012-04-18 17:00:00,40.7367,-122.9404,0.0
5b5df609976f770001883b5d,050372,ASPEN 1SW,UNITED STATES,-0700,2012-04-18 17:00:00,39.1852,-106.838,0.0
5b5df609976f770001883c7d,050373,ASPEN PITKIN COUNTY AP SARDY FIELD,UNITED STATES,-0700,2012-04-18 17:00:00,39.23,-106.87056,0.0
5b5df609976f77000188430d,051931,CRAIG MOFFAT COUNTY AP,UNITED STATES,-0700,2012-04-18 17:00:00,40.49278,-107.52417,0.0
5b5df609976f77000188466d,052286,DINOSAUR NATL MONUMNT,UNITED STATES,-0700,2012-04-18 17:00:00,40.2441,-108.9726,0.0
5b5df609976f770001884b95,053488,GRAND JUNCTION WALKER FIELD,UNITED STATES,-0700,2012-04-18 17:00:00,39.1342,-108.54,0.0
5b5df609976f77000188559d,055484,MEEKER,UNITED STATES,-0700,2012-04-18 17:00:00,40.0358,-107.9058,0.0
5b5df609976f770001885675,055485,MEEKER AIRPORT,UNITED STATES,-0700,2012-04-18 17:00:00,40.04417,-107.88861,0.0
5b5df609976f770001885825,055718,MONTROSE REGIONAL AP,UNITED STATES,-0700,2012-04-18 17:00:00,38.50583,-107.89889,0.0
5b5df609976f770001885b9d,055982,NORTHGATE,UNITED STATES,-0700,2012-04-18 17:00:00,40.93663,-106.33908,0.0
5b5df609976f770001885f8d,057033,RIFLE 3ENE,UNITED STATES,-0700,2012-04-18 17:00:00,39.5572,-107.7261,0.0
5b5df609976f77000188604d,057034,RIFLE GARFIELD COUNTY AP,UNITED STATES,-0700,2012-04-18 17:00:00,39.52778,-107.71972,0.0
5b5df609976f77000188694d,058781,WALSENBURG 1 NW,UNITED STATES,-0700,2012-04-18 17:00:00,37.6302,-104.7956,0.0
5b5df609976f770001886ea7,079595,WILMINGTON NEW CASTLE CO AP,UNITED STATES,-0500,2012-04-18 17:00:00,39.6744,-75.60567,0.0
5b5df609976f7700018870b6,081986,CRESTVIEW BOB SIKES AP,UNITED STATES,-0600,2012-04-18 17:00:00,30.77972,-86.5225,0.0
5b5df609976f77000188721f,082158,DAYTONA BEACH INTL AP,UNITED STATES,-0500,2012-04-18 17:00:00,29.1828,-81.0483,0.0
5b5df609976f7700018872af,082229,DELAND 3 NE,UNITED STATES,-0500,2012-04-18 17:00:00,29.06667,-81.28333,0.0
5b5df609976f77000188733f,082391,DOWLING PARK 1 W,UNITED STATES,-0500,2012-04-18 17:00:00,30.2497,-83.2594,0.0
5b5df609976f77000188766f,083326,GAINESVILLE REGIONAL AP,UNITED STATES,-0500,2012-04-18 17:00:00,29.6919,-82.2755,0.0
5b5df609976f7700018876e6,083538,GRACEVILLE 1 SW,UNITED STATES,-0600,2012-04-18 17:00:00,30.9575,-85.533,0.0
5b5df609976f77000188787f,084358,JACKSONVILLE INTL AP,UNITED STATES,-0500,2012-04-18 17:00:00,30.495,-81.6936,0.0
5b5df609976f77000188796f,084370,JACKSONVILLE CRAIG MUNICIPAL AP,UNITED STATES,-0500,2012-04-18 17:00:00,30.3361,-81.5147,0.0
5b5df609976f770001887aa7,084570,KEY WEST WBAS AP,UNITED STATES,-0500,2012-04-18 17:00:00,24.58333,-81.7,0.0
5b5df609976f77000188808f,085880,MONTICELLO 10 SW,UNITED STATES,-0500,2012-04-18 17:00:00,30.4405,-83.9858,0.0
5b5df609976f770001888226,086240,NICEVILLE,UNITED STATES,-0600,2012-04-18 17:00:00,30.5316,-86.4928,0.0
5b5df609976f770001888436,086997,PENSACOLA,UNITED STATES,-0600,2012-04-18 17:00:00,30.53028,-87.19944,0.0
5b5df609976f77000188868f,088758,TALLAHASSEE REGIONAL AP,UNITED STATES,-0500,2012-04-18 17:00:00,30.39306,-84.35333,0.0
5b5df609976f770001888bfe,089415,WAUSAU,UNITED STATES,-0600,2012-04-18 17:00:00,30.6323,-85.5976,0.0
5b5df609976f770001888cef,089525,WEST PALM BEACH INTERNATIONAL AP,UNITED STATES,-0500,2012-04-18 17:00:00,26.6847,-80.0994,0.0
5b5df609976f770001888df7,089795,WOODRUFF DAM,UNITED STATES,-0500,2012-04-18 17:00:00,30.7219,-84.8741,0.2
5b5df60a976f770001888e87,090044,ADAIRSVILLE 5 SE,UNITED STATES,-0500,2012-04-18 17:00:00,34.3407,-84.8347,0.0
5b5df60a976f770001888eff,090211,ALMA BACON COUNTY AP,UNITED STATES,-0500,2012-04-18 17:00:00,31.5358,-82.5067,0.0
5b5df60a976f770001888fa7,090435,ATHENS BEN EPPS AP,UNITED STATES,-0500,2012-04-18 17:00:00,33.948,-83.3275,0.01
5b5df60a976f770001889097,090451,ATLANTA HARTSFIELD INTL AP,UNITED STATES,-0500,2012-04-18 17:00:00,33.6301,-84.4418,0.0
5b5df60a976f770001889187,090495,AUGUSTA WB AIRPORT,UNITED STATES,-0500,2012-04-18 17:00:00,33.46667,-82.03333,0.0
5b5df60a976f77000188925f,091345,BRUNSWICK MALCOLM MCKINNON AP,UNITED STATES,-0500,2012-04-18 17:00:00,31.1522,-81.3908,0.0
5b5df60a976f770001889337,091619,CARNESVILLE,UNITED STATES,-0500,2012-04-18 17:00:00,34.36555,-83.23278,0.0
5b5df60a976f77000188937f,091743,CEDARTOWN 8 SE,UNITED STATES,-0500,2012-04-18 17:00:00,33.9534,-85.1697,0.0
5b5df60a976f770001889427,091863,CHATSWORTH 2,UNITED STATES,-0500,2012-04-18 17:00:00,34.7582,-84.7642,0.0
5b5df60a976f7700018894ff,091908,CHICKAMAUGA PK LARC,UNITED STATES,-0500,2012-04-18 17:00:00,34.9203,-85.2711,0.0
5b5df60a976f770001889607,092166,COLUMBUS METROPOLITAN AP,UNITED STATES,-0500,2012-04-18 17:00:00,32.5161,-84.9422,0.0
5b5df60a976f77000188967f,092361,CRISP CO POWER DAM,UNITED STATES,-0500,2012-04-18 17:00:00,31.8453,-83.9409,0.0
5b5df60a976f7700018896f7,092485,DALLAS 7 NE,UNITED STATES,-0500,2012-04-18 17:00:00,33.988,-84.7475,0.0
5b5df60a976f770001889787,092593,DECATUR COUNTY FIRE AND RESCUE,UNITED STATES,-0500,2012-04-18 17:00:00,30.9772,-84.6367,0.0
5b5df60a976f770001889817,092844,DUBLIN 2,UNITED STATES,-0500,2012-04-18 17:00:00,32.5574,-82.8999,0.0
5b5df60a976f7700018898a7,093028,EDISON,UNITED STATES,-0500,2012-04-18 17:00:00,31.5663,-84.7338,0.1
5b5df60a976f770001889967,093460,FOLKSTON 3 SW,UNITED STATES,-0500,2012-04-18 17:00:00,30.7997,-82.0313,0.0
5b5df60a976f7700018899af,094204,HAZLEHURST,UNITED STATES,-0500,2012-04-18 17:00:00,31.8878,-82.5808,0.0
5b5df60a976f770001889a27,094623,JACKSON DAM,UNITED STATES,-0500,2012-04-18 17:00:00,33.32,-83.8436,0.0
5b5df60a976f770001889a87,094659,JEFFERSON,UNITED STATES,-0500,2012-04-18 17:00:00,34.1081,-83.5725,0.0
5b5df60a976f770001889bef,094941,CHICKAMAUGA 2 SW,UNITED STATES,-0500,2012-04-18 17:00:00,34.853,-85.3142,0.0
5b5df60a976f770001889c67,095165,LEXINGTON,UNITED STATES,-0500,2012-04-18 17:00:00,33.8705,-83.1135,0.0
5b5df60a976f770001889cdf,095314,LOUISVILLE 1 E,UNITED STATES,-0500,2012-04-18 17:00:00,33.0125,-82.3914,0.0
5b5df60a976f770001889d9f,095443,MACON MIDDLE GA REGIONAL AP,UNITED STATES,-0500,2012-04-18 17:00:00,32.6847,-83.6527,0.06
5b5df60a976f770001889e47,095876,MILLEDGEVILLE (DARDC),UNITED STATES,-0500,2012-04-18 17:00:00,33.0864,-83.2197,0.1
5b5df60a976f770001889ea7,095974,MONROE DARDC,UNITED STATES,-0500,2012-04-18 17:00:00,33.8019,-83.7156,0.0
5b5df60a976f770001889f37,096879,PEARSON,UNITED STATES,-0500,2012-04-18 17:00:00,31.2928,-82.8422,0.0
5b5df60a976f77000188a00f,097847,SAVANNAH INT'L AIRPORT,UNITED STATES,-0500,2012-04-18 17:00:00,32.13133,-81.20237,0.0
5b5df60a976f77000188a087,098657,THE ROCK RANCH,UNITED STATES,-0500,2012-04-18 17:00:00,32.96416,-84.23027,0.0
5b5df60a976f77000188a117,098935,UNICOI STATE PARK,UNITED STATES,-0500,2012-04-18 17:00:00,34.7206,-83.7219,0.1
5b5df60a976f77000188a21f,099291,WEST POINT,UNITED STATES,-0500,2012-04-18 17:00:00,32.8861,-85.1838,0.0
5b5df60a976f77000188a27f,099486,WINTERVILLE,UNITED STATES,-0500,2012-04-18 17:00:00,33.9664,-83.2911,0.0
5b5df60a976f77000188a385,101022,BOISE RIVER GAGE,UNITED STATES,-0700,2012-04-18 17:00:00,43.61667,-116.21667,0.0
5b5df60a976f77000188a51d,101303,BURLEY MUNICIPAL AIRPORT,UNITED STATES,-0700,2012-04-18 17:00:00,42.5416,-113.7661,0.0
5b5df60a976f77000188a624,101370,CALDER,UNITED STATES,-0800,2012-04-18 17:00:00,47.2748,-116.1889,0.0
5b5df60a976f77000188a75d,101514,CASCADE 1 NW,UNITED STATES,-0700,2012-04-18 17:00:00,44.5228,-116.0481,0.0
5b5df60a976f77000188a8c5,102187,COUNCIL,UNITED STATES,-0700,2012-04-18 17:00:00,44.7441,-116.4326,0.0
5b5df60a976f77000188aa8c,102892,ELK RIVER,UNITED STATES,-0800,2012-04-18 17:00:00,46.7823,-116.1796,0.0
5b5df60a976f77000188abc4,102966,ENAVILLE,UNITED STATES,-0800,2012-04-18 17:00:00,47.5689,-116.253,0.0
5b5df60a976f77000188afb4,105241,LEWISTON NEZ PERCE COUNTY AP,UNITED STATES,-0800,2012-04-18 17:00:00,46.3747,-117.0156,0.0
5b5df60a976f77000188b50d,107211,POCATELLO REGIONAL AIRPORT,UNITED STATES,-0700,2012-04-18 17:00:00,42.9202,-112.5711,0.0
5b5df60a976f77000188b5e5,107327,PRAIRIE,UNITED STATES,-0700,2012-04-18 17:00:00,43.5063,-115.5716,0.0
5b5df60a976f77000188b71c,107358,PRICHARD 4 N,UNITED STATES,-0800,2012-04-18 17:00:00,47.7074,-115.978,0.0
5b5df60a976f77000188c2be,111549,CHICAGO OHARE INTL AP,UNITED STATES,-0600,2012-04-18 17:00:00,41.995,-87.9336,0.0
5b5df60a976f77000188c8a6,112687,EFFINGHAM 3SW,UNITED STATES,-0600,2012-04-18 17:00:00,39.1181,-88.6244,0.0
5b5df60a976f77000188cdce,114078,HIDALGO 3SW,UNITED STATES,-0600,2012-04-18 17:00:00,39.1396,-88.1905,0.0
5b5df60a976f77000188d3ce,114957,LAWRENCEVILLE 2WSW,UNITED STATES,-0600,2012-04-18 17:00:00,38.7239,-87.7196,0.0
5b5df60a976f77000188d566,115493,MC HENRY,UNITED STATES,-0600,2012-04-18 17:00:00,42.35,-88.26667,0.0
5b5df60a976f77000188d686,115751,MOLINE QUAD CITY INTL AP,UNITED STATES,-0600,2012-04-18 17:00:00,41.46528,-90.52333,0.0
5b5df60a976f77000188d7d6,115768,MONMOUTH,UNITED STATES,-0600,2012-04-18 17:00:00,40.9443,-90.6381,0.0
5b5df60a976f77000188d9b6,115983,MURPHYSBORO WATERWORKS,UNITED STATES,-0600,2012-04-18 17:00:00,37.76667,-89.31667,0.0
5b5df60a976f77000188df56,117014,PROPHETSTOWN,UNITED STATES,-0600,2012-04-18 17:00:00,41.6752,-89.9374,0.0
5b5df60a976f77000188e346,117382,ROCKFORD GREATER ROCKFORD AP,UNITED STATES,-0600,2012-04-18 17:00:00,42.1927,-89.093,0.0
5b5df60a976f77000188e556,117833,SHABBONA 3S,UNITED STATES,-0600,2012-04-18 17:00:00,41.73272,-88.86425,0.0
5b5df60a976f77000188e616,118020,SMITHLAND LOCK & DAM,UNITED STATES,-0600,2012-04-18 17:00:00,37.1644,-88.4311,0.0
5b5df60a976f77000188e9ee,118781,VANDALIA,UNITED STATES,-0600,2012-04-18 17:00:00,38.958,-89.0952,0.0
5b5df60a976f770001890597,127069,PORTLAND WATER WORKS,UNITED STATES,-0500,2012-04-18 17:00:00,40.46667,-84.96667,0.0
5b5df60a976f770001890a8f,127999,SHELBYVILLE SEWAGE PLANT,UNITED STATES,-0500,2012-04-18 17:00:00,39.5282,-85.7914,0.0
5b5df60a976f770001890c57,128187,SOUTH BEND AP,UNITED STATES,-0500,2012-04-18 17:00:00,41.7072,-86.3163,0.0
5b5df60a976f770001891256,130046,ADAIR,UNITED STATES,-0600,2012-04-18 17:00:00,41.5013,-94.6355,0.0
5b5df60a976f770001891376,130197,AMES MUNICIPAL AP,UNITED STATES,-0600,2012-04-18 17:00:00,41.99056,-93.61889,0.0
5b5df60a976f770001891466,130200,AMES 8 WSW,UNITED STATES,-0600,2012-04-18 17:00:00,42.0208,-93.7741,0.0
5b5df60a976f7700018917f6,130853,BOYER 4 SE,UNITED STATES,-0600,2012-04-18 17:00:00,42.1255,-95.1886,0.0
5b5df60a976f7700018918fe,131126,CALMAR NE,UNITED STATES,-0600,2012-04-18 17:00:00,43.1876,-91.862,0.0
5b5df60a976f770001891a36,131245,CARSON 3NNE,UNITED STATES,-0600,2012-04-18 17:00:00,41.2738,-95.4025,0.0
5b5df60a976f770001891c2e,131314,CEDAR RAPIDS MUNICIPAL AP,UNITED STATES,-0600,2012-04-18 17:00:00,41.8833,-91.7166,0.0
5b5df60a976f770001891ee6,131442,CHEROKEE 3 N,UNITED STATES,-0600,2012-04-18 17:00:00,42.78333,-95.55,0.0
5b5df60a976f770001892126,131793,COON RAPIDS,UNITED STATES,-0600,2012-04-18 17:00:00,41.8747,-94.6705,0.0
5b5df60a976f770001892276,132203,DES MOINES INTL AP,UNITED STATES,-0600,2012-04-18 17:00:00,41.5338,-93.653,0.0
5b5df60a976f7700018924e6,132367,DUBUQUE REGIONAL AP,UNITED STATES,-0600,2012-04-18 17:00:00,42.39778,-90.70361,0.0
5b5df60a976f770001892666,132977,FOREST CITY 2 NNE,UNITED STATES,-0600,2012-04-18 17:00:00,43.2844,-93.6305,0.0
5b5df60a976f770001892786,133438,GREENFIELD,UNITED STATES,-0600,2012-04-18 17:00:00,41.298,-94.4561,0.0
5b5df60a976f7700018929c6,133944,HORNICK 5S,UNITED STATES,-0600,2012-04-18 17:00:00,42.1558,-96.083,0.0
5b5df60a976f770001892ae6,134142,IOWA FALLS,UNITED STATES,-0600,2012-04-18 17:00:00,42.5188,-93.2536,0.0
5b5df60a976f7700018930ce,134587,LAMONI MUNICIPAL AP,UNITED STATES,-0600,2012-04-18 17:00:00,40.6306,-93.9008,0.0
5b5df60a976f770001893206,134746,LENOX,UNITED STATES,-0600,2012-04-18 17:00:00,40.8747,-94.5717,0.0
5b5df60a976f7700018933e6,135199,MARSHALLTOWN MUNICIPAL AP,UNITED STATES,-0600,2012-04-18 17:00:00,42.11056,-92.91611,0.0
5b5df60a976f770001893536,135235,MASON CITY MUNICIPAL AP,UNITED STATES,-0600,2012-04-18 17:00:00,43.1544,-93.3269,0.0
5b5df60a976f770001893686,135295,MAXWELL,UNITED STATES,-0600,2012-04-18 17:00:00,41.8875,-93.3919,0.0
5b5df60a976f770001893aa6,135823,MOVILLE,UNITED STATES,-0600,2012-04-18 17:00:00,42.4916,-96.0688,0.0
5b5df60a976f770001893cce,136209,OGDEN,UNITED STATES,-0600,2012-04-18 17:00:00,42.0388,-94.0419,0.0
5b5df60a976f770001893e06,136389,OTTUMWA INDUSTRIAL AP,UNITED STATES,-0600,2012-04-18 17:00:00,41.1077,-92.4466,0.0
5b5df60a976f770001893f6e,137058,RINGSTED,UNITED STATES,-0600,2012-04-18 17:00:00,43.2947,-94.5116,0.0
5b5df60a976f7700018940be,137167,ROCKWELL CITY NO. 2,UNITED STATES,-0600,2012-04-18 17:00:00,42.3911,-94.6288,0.0
5b5df60a976f77000189417e,137326,ST ANSGAR,UNITED STATES,-0600,2012-04-18 17:00:00,43.3817,-92.9232,0.0
5b5df60a976f77000189438e,137572,SHEFFIELD 3 NW,UNITED STATES,-0600,2012-04-18 17:00:00,42.9216,-93.2827,0.0
5b5df60a976f77000189456e,137602,SHELL ROCK 1 SW,UNITED STATES,-0600,2012-04-18 17:00:00,42.70417,-92.59056,0.0
5b5df60a976f7700018946a6,137700,SIOUX CENTER 2 SE,UNITED STATES,-0600,2012-04-18 17:00:00,43.0558,-96.1525,0.0
5b5df60a976f7700018947c6,137708,SIOUX CITY AP,UNITED STATES,-0600,2012-04-18 17:00:00,42.3913,-96.3791,0.0
5b5df60a976f7700018948fe,137774,SOLDIER,UNITED STATES,-0600,2012-04-18 17:00:00,41.9811,-95.7769,0.0
5b5df60a976f770001894a1e,137844,SPENCER 1 N,UNITED STATES,-0600,2012-04-18 17:00:00,43.1652,-95.1466,0.0
5b5df60a976f770001894b0e,137985,STORY CITY,UNITED STATES,-0600,2012-04-18 17:00:00,42.1791,-93.5816,0.0
5b5df60a976f770001894fd6,138706,WATERLOO MUNICIPAL AP,UNITED STATES,-0600,2012-04-18 17:00:00,42.5544,-92.4011,0.0
5b5df60a976f77000189510e,138806,WEBSTER CITY,UNITED STATES,-0600,2012-04-18 17:00:00,42.4685,-93.7974,0.0
5b5df60a976f77000189522e,139164,WOODBINE,UNITED STATES,-0600,2012-04-18 17:00:00,41.745,-95.7091,0.0
5b5df60a976f770001895fc6,143686,HILLSDALE LAKE,UNITED STATES,-0600,2012-04-18 17:00:00,38.6645,-94.8901,0.0
5b5df60a976f77000189714f,150450,BAXTER,UNITED STATES,-0500,2012-04-18 17:00:00,36.8582,-83.3302,0.0
5b5df60a976f770001897256,150611,BENTON,UNITED STATES,-0600,2012-04-18 17:00:00,36.858,-88.3363,0.0
5b5df60a976f770001897977,154202,JACKSON JULIAN CARROLL AP,UNITED STATES,-0500,2012-04-18 17:00:00,37.59139,-83.31444,0.01
5b5df60a976f770001898696,161157,BOOTHVILLE ASOS,UNITED STATES,-0600,2012-04-18 17:00:00,29.333,-89.4075,0.0
5b5df60a976f7700018988ee,164030,HAMMOND 5 E,UNITED STATES,-0600,2012-04-18 17:00:00,30.503,-90.3772,0.0
5b5df60a976f77000189a71f,180465,BALTIMORE WB AIRPORT,UNITED STATES,-0500,2012-04-18 17:00:00,39.25,-76.53333,0.02
5b5df60a976f77000189a80f,180700,BELTSVILLE,UNITED STATES,-0500,2012-04-18 17:00:00,39.0302,-76.9315,0.0
5b5df60a976f77000189a8ff,185718,MARYLAND SCIENCE CENTER,UNITED STATES,-0500,2012-04-18 17:00:00,39.2814,-76.6111,0.0
5b5df60a976f77000189a9ef,185934,MILLERS 4 NE,UNITED STATES,-0500,2012-04-18 17:00:00,39.7194,-76.8027,0.0
5b5df60a976f77000189b19f,200089,ALBERTA FORD FOR CENTER,UNITED STATES,-0500,2012-04-18 17:00:00,46.6448,-88.4812,0.0
5b5df60a976f77000189b28f,200164,ALPENA COUNTY REGIONAL AP,UNITED STATES,-0500,2012-04-18 17:00:00,45.0716,-83.5644,0.0
5b5df60a976f77000189b427,200662,BELLAIRE,UNITED STATES,-0500,2012-04-18 17:00:00,44.9758,-85.198,0.0
5b5df60a976f77000189b547,200766,BIG BAY 8 NW,UNITED STATES,-0500,2012-04-18 17:00:00,46.8864,-87.8639,0.0
5b5df60a976f77000189b5ef,201088,BRUCE CROSSING,UNITED STATES,-0500,2012-04-18 17:00:00,46.5345,-89.1839,0.0
5b5df60a976f77000189b79f,201486,CHATHAM EXPERIMENT FARM 2,UNITED STATES,-0500,2012-04-18 17:00:00,46.3414,-86.9242,0.0
5b5df60a976f77000189bacf,202626,ESCANABA,UNITED STATES,-0500,2012-04-18 17:00:00,45.7438,-87.0406,0.1
5b5df60a976f77000189c0e7,203516,GWINN 1W,UNITED STATES,-0500,2012-04-18 17:00:00,46.2863,-87.4511,0.0
5b5df60a976f77000189c33f,203936,HOUGHTON LAKE ROSCOMMON COUNTY AP,UNITED STATES,-0500,2012-04-18 17:00:00,44.3591,-84.6738,0.0
5b5df60a976f77000189c4be,204090,IRON MTN-KINGSFORD WWTP,UNITED STATES,-0600,2012-04-18 17:00:00,45.7858,-88.0841,0.0
5b5df60a976f77000189c596,204104,IRONWOOD,UNITED STATES,-0600,2012-04-18 17:00:00,46.4656,-90.1892,0.0
5b5df60a976f77000189c8c7,204328,KENTON,UNITED STATES,-0500,2012-04-18 17:00:00,46.4863,-88.8916,0.0
5b5df60a976f77000189c96f,204502,LAKE CITY EXP FARM,UNITED STATES,-0500,2012-04-18 17:00:00,44.3088,-85.205,0.0
5b5df60a976f77000189cb97,205073,MANISTIQUE WWTP,UNITED STATES,-0500,2012-04-18 17:00:00,45.9512,-86.2513,0.0
5b5df60a976f77000189cc6f,205184,MARQUETTE WFO,UNITED STATES,-0500,2012-04-18 17:00:00,46.5313,-87.5491,0.1
5b5df60a976f77000189cdbf,205712,MUSKEGON COUNTY AP,UNITED STATES,-0500,2012-04-18 17:00:00,43.17111,-86.23667,0.0
5b5df60a976f77000189cef7,206215,ONTONAGON,UNITED STATES,-0500,2012-04-18 17:00:00,46.8559,-89.3124,0.0
5b5df60a976f77000189d0bf,206438,PELLSTON REGIONAL AIRPORT,UNITED STATES,-0500,2012-04-18 17:00:00,45.5644,-84.7927,0.0
5b5df60a976f77000189d23f,207366,SAULT STE MARIE SANDERSON FIELD,UNITED STATES,-0500,2012-04-18 17:00:00,46.4794,-84.3572,0.0
5b5df60a976f77000189d406,207812,STAMBAUGH 2SSE,UNITED STATES,-0600,2012-04-18 17:00:00,46.0555,-88.6275,0.1
5b5df60a976f77000189d59f,208293,TROUT LAKE 1SW,UNITED STATES,-0500,2012-04-18 17:00:00,46.1796,-85.0311,0.0
5b5df60a976f77000189d62f,208417,VANDERBILT 11ENE,UNITED STATES,-0500,2012-04-18 17:00:00,45.1702,-84.4397,0.0
5b5df60a976f77000189d946,210112,ALEXANDRIA MUNICIPAL AP,UNITED STATES,-0600,2012-04-18 17:00:00,45.8679,-95.3941,0.0
5b5df60a976f77000189dc16,210746,BIG FALLS,UNITED STATES,-0600,2012-04-18 17:00:00,48.1969,-93.7994,0.0
5b5df60a976f77000189dd4e,211227,CAMBRIDGE 5ESE,UNITED STATES,-0600,2012-04-18 17:00:00,45.5505,-93.1265,0.0
5b5df60a976f77000189de6e,211263,CANBY,UNITED STATES,-0600,2012-04-18 17:00:00,44.7184,-96.2696,0.0
5b5df60a976f77000189df8e,212166,DODGE CENTER,UNITED STATES,-0600,2012-04-18 17:00:00,44.0317,-92.8691,0.0
5b5df60a976f77000189e126,212248,DULUTH INTL AP,UNITED STATES,-0600,2012-04-18 17:00:00,46.8369,-92.1833,0.0
5b5df60a976f77000189e2a6,212645,EVELETH WASTE WATER PLANT,UNITED STATES,-0600,2012-04-18 17:00:00,47.4581,-92.5303,0.0
5b5df60a976f77000189e396,212842,FLOODWOOD 3 NE,UNITED STATES,-0600,2012-04-18 17:00:00,46.9728,-92.87,0.0
5b5df60a976f77000189e40e,212916,FOSSTON 1 E,UNITED STATES,-0600,2012-04-18 17:00:00,47.5639,-95.7246,0.0
5b5df60a976f77000189e546,213202,GOLDEN VALLEY,UNITED STATES,-0600,2012-04-18 17:00:00,44.9907,-93.3989,0.0
5b5df60a976f77000189e70e,213411,GULL LAKE DAM,UNITED STATES,-0600,2012-04-18 17:00:00,46.4119,-94.3608,0.0
5b5df60a976f77000189e7e6,213417,GUNFLINT LAKE 10 NW,UNITED STATES,-0600,2012-04-18 17:00:00,48.1603,-90.8842,0.1
5b5df60a976f77000189e88e,213463,HALSTAD,UNITED STATES,-0600,2012-04-18 17:00:00,47.3522,-96.8332,0.0
5b5df60a976f77000189e9ae,213863,HOLYOKE,UNITED STATES,-0600,2012-04-18 17:00:00,46.4675,-92.3903,0.0
5b5df60a976f77000189ec1e,214026,INTERNATIONAL FALLS INTL AP,UNITED STATES,-0600,2012-04-18 17:00:00,48.5614,-93.3981,0.0
5b5df60a976f77000189ed26,214418,LA CRESCENT DAM 7,UNITED STATES,-0600,2012-04-18 17:00:00,43.8657,-91.31,0.0
5b5df60a976f77000189ee16,214453,LAKEFIELD 2NE,UNITED STATES,-0600,2012-04-18 17:00:00,43.7022,-95.1519,0.0
5b5df60a976f77000189f086,215435,MINNEAPOLIS ST PAUL INTL AP,UNITED STATES,-0600,2012-04-18 17:00:00,44.8831,-93.2289,0.0
5b5df60a976f77000189f24e,215441,MINNEAPOLIS CRYSTAL AIRPORT,UNITED STATES,-0600,2012-04-18 17:00:00,45.06194,-93.35083,0.0
5b5df60a976f77000189f3e6,215443,MINNEAPOLIS FLYING CLOUD AIRPORT,UNITED STATES,-0600,2012-04-18 17:00:00,44.8321,-93.4705,0.0
5b5df60a976f77000189f566,216166,ONAMIA RANGER STATION,UNITED STATES,-0600,2012-04-18 17:00:00,46.06773,-93.66663,0.0
5b5df60a976f77000189f66e,216211,ORR 3E,UNITED STATES,-0600,2012-04-18 17:00:00,48.0508,-92.7636,0.0
5b5df60a976f77000189f8ae,216822,RED WING DAM 3,UNITED STATES,-0600,2012-04-18 17:00:00,44.6103,-92.6101,0.0
5b5df60a976f77000189fa2e,216841,REDWOOD FALLS MUNICIPAL AIRPORT,UNITED STATES,-0600,2012-04-18 17:00:00,44.5483,-95.0804,0.0
5b5df60a976f77000189fb7e,217004,ROCHESTER,UNITED STATES,-0600,2012-04-18 17:00:00,44,-92.45,0.0
5b5df60a976f77000189fcce,217184,RUSHFORD,UNITED STATES,-0600,2012-04-18 17:00:00,43.8052,-91.7501,0.0
5b5df60a976f77000189fdee,217294,ST. CLOUD,UNITED STATES,-0600,2012-04-18 17:00:00,45.55,-94.133333,0.0
5b5df60a976f77000189ff56,217370,ST PAUL DOWNTOWN AIRPORT,UNITED STATES,-0600,2012-04-18 17:00:00,44.93194,-93.05556,0.0
5b5df60a976f7700018a0076,217460,SANDY LAKE DAM LIBBY,UNITED STATES,-0600,2012-04-18 17:00:00,46.7953,-93.3211,0.0
5b5df60a976f7700018a011e,217602,SHERBURN 2 E,UNITED STATES,-0600,2012-04-18 17:00:00,43.65,-94.7,0.0
5b5df60a976f7700018a032e,217941,SPRING VALLEY,UNITED STATES,-0600,2012-04-18 17:00:00,43.6933,-92.3926,0.0
5b5df60a976f7700018a041e,218235,THIEF LAKE REFUGE,UNITED STATES,-0600,2012-04-18 17:00:00,48.4882,-95.9496,0.0
5b5df60a976f7700018a05b6,218411,TWIN VALLEY 3 SW,UNITED STATES,-0600,2012-04-18 17:00:00,47.2272,-96.2986,0.0
5b5df60a976f7700018a06a6,218613,WALES 2E,UNITED STATES,-0600,2012-04-18 17:00:00,47.2561,-91.7017,0.0
5b5df60a976f7700018a0736,218679,WARROAD,UNITED STATES,-0600,2012-04-18 17:00:00,48.8947,-95.3303,0.0
5b5df60a976f7700018a07f6,218729,WATSON 1 NE,UNITED STATES,-0600,2012-04-18 17:00:00,45.0227,-95.7896,0.0
5b5df60a976f7700018a08e6,218947,WHITE ROCK DAM,UNITED STATES,-0600,2012-04-18 17:00:00,45.8619,-96.565,0.0
5b5df60a976f7700018a10de,222773,ENID DAM,UNITED STATES,-0600,2012-04-18 17:00:00,34.1606,-89.902,0.0
5b5df60a976f7700018a11b6,222870,ETHEL,UNITED STATES,-0600,2012-04-18 17:00:00,33.1169,-89.4719,0.0
5b5df60a976f7700018a1576,223666,GULFPORT - BILOXI AIRPORT,UNITED STATES,-0600,2012-04-18 17:00:00,30.4119,-89.0808,0.0
5b5df60a976f7700018a1636,223895,HATTIESBURG CHAIN MUNICIPAL AP,UNITED STATES,-0600,2012-04-18 17:00:00,31.28194,-89.25306,0.0
5b5df60a976f7700018a16f6,224001,HICKORY FLAT,UNITED STATES,-0600,2012-04-18 17:00:00,34.6189,-89.1912,0.0
5b5df60a976f7700018a17e6,224173,HOLLY SPRINGS 4 N,UNITED STATES,-0600,2012-04-18 17:00:00,34.8219,-89.4347,0.0
5b5df60a976f7700018a1d6e,225776,MERIDIAN KEY FIELD,UNITED STATES,-0600,2012-04-18 17:00:00,32.3347,-88.7442,0.0
5b5df60a976f7700018a1f4e,226714,PASCAGOULA LOTT INTL AP,UNITED STATES,-0600,2012-04-18 17:00:00,30.46361,-88.53194,0.0
5b5df60a976f7700018a212e,227220,PURVIS 2N,UNITED STATES,-0600,2012-04-18 17:00:00,31.1775,-89.4155,0.0
5b5df60a976f7700018a23b6,227815,SARDIS DAM,UNITED STATES,-0600,2012-04-18 17:00:00,34.3961,-89.7902,0.0
5b5df60a976f7700018a24be,227820,SAREPTA 1 NNE,UNITED STATES,-0600,2012-04-18 17:00:00,34.1207,-89.2943,0.0
5b5df60a976f7700018a28ae,229079,UNIVERSITY,UNITED STATES,-0600,2012-04-18 17:00:00,34.3726,-89.5308,0.0
5b5df60b976f7700018a335e,232318,DOWNING,UNITED STATES,-0600,2012-04-18 17:00:00,40.4906,-92.3705,0.0
5b5df60b976f7700018a3cee,234544,KIRKSVILLE,UNITED STATES,-0600,2012-04-18 17:00:00,40.2057,-92.5748,0.0
5b5df60b976f7700018a404e,235130,LURAY 2 N,UNITED STATES,-0600,2012-04-18 17:00:00,40.4869,-91.8764,0.0
5b5df60b976f7700018a419e,235207,MALDEN MUNICIPAL AP,UNITED STATES,-0600,2012-04-18 17:00:00,36.5994,-89.9894,0.0
5b5df60b976f7700018a6256,238746,WASHINGTON,UNITED STATES,-0600,2012-04-18 17:00:00,38.5416,-90.9752,0.0
5b5df60b976f7700018a668d,240554,BAYLOR,UNITED STATES,-0700,2012-04-18 17:00:00,48.6715,-106.4808,0.0
5b5df60b976f7700018a67c5,240622,BOZEMAN GALLATIN FIELD AP,UNITED STATES,-0700,2012-04-18 17:00:00,45.788,-111.1608,0.0
5b5df60b976f7700018a698d,240807,BILLINGS INTERNATIONAL AIRPORT,UNITED STATES,-0700,2012-04-18 17:00:00,45.8069,-108.5422,0.0
5b5df60b976f7700018a6bfd,241102,BRIDGER 2 N,UNITED STATES,-0700,2012-04-18 17:00:00,45.3261,-108.9091,0.0
5b5df60b976f7700018a6e3d,241318,BUTTE BERT MOONEY AP,UNITED STATES,-0700,2012-04-18 17:00:00,45.9647,-112.5006,0.0
5b5df60b976f7700018a710d,241875,COHAGEN,UNITED STATES,-0700,2012-04-18 17:00:00,47.0568,-106.6166,0.0
5b5df60b976f7700018a71fd,241995,COOKE CITY 2 W,UNITED STATES,-0700,2012-04-18 17:00:00,45.0108,-109.982,0.0
5b5df60b976f7700018a746d,242404,DILLON AIRPORT,UNITED STATES,-0700,2012-04-18 17:00:00,45.2575,-112.5544,0.0
5b5df60b976f7700018a75a5,242414,DILLON  9 SSE,UNITED STATES,-0700,2012-04-18 17:00:00,45.09178,-112.60443,0.0
5b5df60b976f7700018a767d,242441,DODSON 11 N,UNITED STATES,-0700,2012-04-18 17:00:00,48.5542,-108.2067,0.0
5b5df60b976f7700018a779d,242584,DUTTON 6 E,UNITED STATES,-0700,2012-04-18 17:00:00,47.8433,-111.5795,0.0
5b5df60b976f7700018a7a25,243489,GIBSON DAM,UNITED STATES,-0700,2012-04-18 17:00:00,47.6011,-112.7547,0.0
5b5df60b976f7700018a7ae5,243558,GLASGOW INTERNATIONAL AP,UNITED STATES,-0700,2012-04-18 17:00:00,48.2138,-106.6214,0.0
5b5df60b976f7700018a7ba5,243581,GLENDIVE,UNITED STATES,-0700,2012-04-18 17:00:00,47.1065,-104.7183,0.0
5b5df60b976f7700018a7cad,243751,GREAT FALLS AIRPORT,UNITED STATES,-0700,2012-04-18 17:00:00,47.4733,-111.3822,0.0
5b5df60b976f7700018a7d9d,243753,GREAT FALLS WFO,UNITED STATES,-0700,2012-04-18 17:00:00,47.4615,-111.385,0.0
5b5df60b976f7700018a7f4d,243996,HAVRE AP ASOS,UNITED STATES,-0700,2012-04-18 17:00:00,48.5428,-109.7633,0.01
5b5df60b976f7700018a8175,244055,HELENA AIRPORT ASOS,UNITED STATES,-0700,2012-04-18 17:00:00,46.6056,-111.9636,0.0
5b5df60b976f7700018a8265,244143,HILGER,UNITED STATES,-0700,2012-04-18 17:00:00,47.2531,-109.361,0.0
5b5df60b976f7700018a860d,244558,KALISPELL GLACIER AIRPORT,UNITED STATES,-0700,2012-04-18 17:00:00,48.3042,-114.2636,0.0
5b5df60b976f7700018a875d,244904,LAVINA,UNITED STATES,-0700,2012-04-18 17:00:00,46.293,-108.9416,0.0
5b5df60b976f7700018a8835,244983,LEWISTOWN 2 SW,UNITED STATES,-0700,2012-04-18 17:00:00,47.0512,-109.4426,0.0
5b5df60b976f7700018a8a15,245086,LIVINGSTON,UNITED STATES,-0700,2012-04-18 17:00:00,45.66667,-110.53333,0.0
5b5df60b976f7700018a8b95,245088,LIVINGSTON RAIN GAUGE,UNITED STATES,-0700,2012-04-18 17:00:00,45.697,-110.454,0.0
5b5df60b976f7700018a8d45,245335,MALTA #2,UNITED STATES,-0700,2012-04-18 17:00:00,48.3469,-107.8783,0.0
5b5df60b976f7700018a8edd,245690,MILES CITY AIRPORT,UNITED STATES,-0700,2012-04-18 17:00:00,46.4266,-105.8825,0.0
